LEAID,NAME,OPSTFIPS,STREET,CITY,STATE,ZIP,STFIP,CNTY,NMCNTY,LAT,LON,CBSA,NMCBSA,CBSATYPE,CSA,NMCSA,NECTA,NMNECTA,CD,SLDL,SLDU,SCHOOLYEAR,LOCALE,LOC_OTHER,LOC_COUNT,LOC_SCH
0100002,Alabama Youth Services,01,1000 Industrial School Road,Mt Meigs,AL,36057,01,01073,Jefferson County,33.673661,-86.628755,13820,"Birmingham-Hoover, AL",1,142,"Birmingham-Hoover-Talladega, AL",N,N,0106,01044,01020,2017-2018,21,-2,-2,N
0100005,Albertville City,01,107 West Main Street,Albertville,AL,35950,01,01095,Marshall County,34.268289,-86.209263,10700,"Albertville, AL",2,290,"Huntsville-Decatur-Albertville, AL",N,N,0104,01026,01009,2017-2018,32,0,1,32
0100006,Marshall County,01,12380 US Highway 431 S,Guntersville,AL,35976,01,01095,Marshall County,34.30577,-86.286958,10700,"Albertville, AL",2,290,"Huntsville-Decatur-Albertville, AL",N,N,0104,01034,01009,2017-2018,42,21.02,2,"41, 42"
0100007,Hoover City,01,2810 Metropolitan Way,Hoover,AL,35243,01,01073,Jefferson County,33.4062,-86.7669,13820,"Birmingham-Hoover, AL",1,142,"Birmingham-Hoover-Talladega, AL",N,N,0106,01047,01016,2017-2018,13,5.97,2,"13, 41"
0100008,Madison City,01,211 Celtic Drive,Madison,AL,35758,01,01089,Madison County,34.686721,-86.745741,26620,"Huntsville, AL",1,290,"Huntsville-Decatur-Albertville, AL",N,N,0105,01010,01002,2017-2018,21,0,1,21
0100009,Al Inst Deaf And Blind,01,205 E South Street,Talladega,AL,35160,01,01121,Talladega County,33.432193,-86.098593,45180,"Talladega-Sylacauga, AL",2,142,"Birmingham-Hoover-Talladega, AL",N,N,0103,01035,01011,2017-2018,32,-2,-2,N
0100011,Leeds City,01,1404 8th Street,Leeds,AL,35094,01,01073,Jefferson County,33.54419,-86.541801,13820,"Birmingham-Hoover, AL",1,142,"Birmingham-Hoover-Talladega, AL",N,N,0106,01045,01015,2017-2018,21,0,1,21
0100012,Boaz City,01,126 Newt Parker Dr,Boaz,AL,35957,01,01095,Marshall County,34.21315,-86.159891,10700,"Albertville, AL",2,290,"Huntsville-Decatur-Albertville, AL",N,N,0104,01026,01009,2017-2018,32,0,1,32
0100013,Trussville City,01,601 Parkway Drive,Trussville,AL,35173,01,01073,Jefferson County,33.63251,-86.604551,13820,"Birmingham-Hoover, AL",1,142,"Birmingham-Hoover-Talladega, AL",N,N,0106,01044,01017,2017-2018,21,32.36,2,"21, 41"
0100015,SafetyNet Academy Minter,01,80 Mel Bailey Drive,Minter,AL,36761,01,01047,Dallas County,32.111608,-87.077607,42820,"Selma, AL",2,N,N,N,N,0107,01067,01023,2017-2018,43,-2,-2,N
0100016,Bryce Adolescent School,01,200 University Blvd,Tuscaloosa,AL,35401,01,01125,Tuscaloosa County,33.207565,-87.538057,46220,"Tuscaloosa, AL",1,N,N,N,N,0107,01063,01021,2017-2018,13,-2,-2,N
0100018,Alabama School of Fine Arts,01,1800 Rev Abraham Woods Jr Blvd,Birmingham,AL,35203,01,01073,Jefferson County,33.520933,-86.812936,13820,"Birmingham-Hoover, AL",1,142,"Birmingham-Hoover-Talladega, AL",N,N,0107,01054,01018,2017-2018,12,-2,-2,N
0100019,United Ability,01,120 Oslo Circle,Birmingham,AL,35211,01,01073,Jefferson County,33.433274,-86.874846,13820,"Birmingham-Hoover, AL",1,142,"Birmingham-Hoover-Talladega, AL",N,N,0107,01056,01018,2017-2018,41,-2,-2,N
0100020,Boyd School,01,20856 Eastern Valley Road,Green Pond,AL,35074,01,01007,Bibb County,33.225984,-87.122222,13820,"Birmingham-Hoover, AL",1,142,"Birmingham-Hoover-Talladega, AL",N,N,0106,01049,01014,2017-2018,31,-2,-2,N
0100021,BrewerPorch Childrens Center,01,2501 Woodland Rd,Tuscaloosa,AL,35404,01,01125,Tuscaloosa County,33.18708,-87.48217,46220,"Tuscaloosa, AL",1,N,N,N,N,0107,01070,01024,2017-2018,13,-2,-2,N
0100022,Sequel TSI Courtland LLC,01,349 Madison Street,Courtland,AL,35618,01,01079,Lawrence County,34.67078,-87.31214,19460,"Decatur, AL",1,290,"Huntsville-Decatur-Albertville, AL",N,N,0104,01007,01004,2017-2018,42,-2,-2,N
0100023,Sequel TSI Madison LLC,01,1329 Browns Ferry Road,Madison,AL,35758,01,01089,Madison County,34.7221,-86.7782,26620,"Huntsville, AL",1,290,"Huntsville-Decatur-Albertville, AL",N,N,0105,01025,01002,2017-2018,21,-2,-2,N
0100024,Sequel TSI New Beginnings LLC,01,318 Hamer Rd,Owens Crossroads,AL,35763,01,01089,Madison County,34.57955,-86.440974,26620,"Huntsville, AL",1,290,"Huntsville-Decatur-Albertville, AL",N,N,0105,01022,01009,2017-2018,41,-2,-2,N
0100026,Sequel TSI Tuskegee LLC,01,4280 U S Highway 29 South,Tuskegee,AL,36083,01,01087,Macon County,32.374793,-85.661798,N,N,0,N,N,N,N,0103,01082,01028,2017-2018,41,-2,-2,N
0100028,Triwill Portacras,01,65 Enterprise Loop,Woodstock,AL,35188,01,01007,Bibb County,33.167521,-87.1912,13820,"Birmingham-Hoover, AL",1,142,"Birmingham-Hoover-Talladega, AL",N,N,0106,01049,01014,2017-2018,41,-2,-2,N
0100029,Three Springs New Direction,01,318 Hamer Road,Owens Cross Roads,AL,35806,01,01089,Madison County,34.5802,-86.4404,26620,"Huntsville, AL",1,290,"Huntsville-Decatur-Albertville, AL",N,N,0105,01022,01009,2017-2018,41,-2,-2,N
0100030,Alexander City,01,375 Lee Street,Alexander City,AL,35010,01,01123,Tallapoosa County,32.940361,-85.957909,10760,"Alexander City, AL",2,142,"Birmingham-Hoover-Talladega, AL",N,N,0103,01081,01027,2017-2018,32,26.65,2,"32, 41"
0100032,Southern Oaks Academy,01,2280 Hwy 35 South,Pelham,AL,35124,01,01117,Shelby County,33.307596,-86.782184,13820,"Birmingham-Hoover, AL",1,142,"Birmingham-Hoover-Talladega, AL",N,N,0106,01073,01015,2017-2018,21,-2,-2,N
0100033,Glenwood Mental Health Service,01,150 Glenwood Lane,Birmingham,AL,35242,01,01073,Jefferson County,33.481492,-86.66161,13820,"Birmingham-Hoover, AL",1,142,"Birmingham-Hoover-Talladega, AL",N,N,0106,01045,01015,2017-2018,41,-2,-2,N
0100035,The Little Tree Preschool Auburn,01,5451 Able Court,Mobile,AL,36693,01,01097,Mobile County,30.645501,-88.166333,33660,"Mobile, AL",1,380,"Mobile-Daphne-Fairhope, AL",N,N,0101,01104,01035,2017-2018,12,-2,-2,N
0100036,Lee County Youth Development Center,01,1109 Spring Dr,Opelika,AL,36801,01,01081,Lee County,32.641851,-85.427885,12220,"Auburn-Opelika, AL",1,194,"Columbus-Auburn-Opelika, GA-AL",N,N,0103,01083,01027,2017-2018,13,-2,-2,N
0100037,BayPointe Residential Services,01,5800 Southland Drive,Mobile,AL,36693,01,01097,Mobile County,30.624812,-88.177764,33660,"Mobile, AL",1,380,"Mobile-Daphne-Fairhope, AL",N,N,0101,01104,01035,2017-2018,12,-2,-2,N
0100038,Pathway Inc,01,P O Box 1540,Enterprise,AL,36331,01,01031,Coffee County,31.422718,-85.901981,21460,"Enterprise, AL",2,222,"Dothan-Enterprise-Ozark, AL",N,N,0102,01091,01031,2017-2018,42,-2,-2,N
0100039,Presbyterian Home for Children,01,905 Ashland Hwy,Talladega,AL,35160,01,01121,Talladega County,33.432896,-86.086501,45180,"Talladega-Sylacauga, AL",2,142,"Birmingham-Hoover-Talladega, AL",N,N,0103,01035,01011,2017-2018,32,-2,-2,N
0100040,Brantwood Childrens Home,01,1426 South Court Street,Montgomery,AL,36104,01,01101,Montgomery County,32.38493,-86.290431,33860,"Montgomery, AL",1,N,N,N,N,0102,01078,01026,2017-2018,12,-2,-2,N
0100041,Developing Alabama Youth Prog,01,632 11th Ave SW,Alabaster,AL,35007,01,01117,Shelby County,33.232414,-86.825056,13820,"Birmingham-Hoover, AL",1,142,"Birmingham-Hoover-Talladega, AL",N,N,0106,01049,01014,2017-2018,21,-2,-2,N
0100042,Laurel Oaks Behavioral Health Center,01,700 E Cottonwood Rd,Dothan,AL,36301,01,01069,Houston County,31.203814,-85.38462,20020,"Dothan, AL",1,222,"Dothan-Enterprise-Ozark, AL",N,N,0102,01085,01029,2017-2018,13,-2,-2,N
0100043,Southeastern Psychiaric Management Inc,01,3001 Scenic Hwy,Gadsden,AL,35904,01,01055,Etowah County,34.072484,-86.019898,23460,"Gadsden, AL",1,N,N,N,N,0104,01029,01010,2017-2018,13,-2,-2,N
0100044,The Rushton SchoolGateway Center,01,5201 Airport Highway,Birmingham,AL,35212,01,01073,Jefferson County,33.545361,-86.758008,13820,"Birmingham-Hoover, AL",1,142,"Birmingham-Hoover-Talladega, AL",N,N,0107,01059,01018,2017-2018,12,-2,-2,N
0100045,Wilmer Hall,01,3811 Old Shell Road,Mobile,AL,36608,01,01097,Mobile County,30.697927,-88.131413,33660,"Mobile, AL",1,380,"Mobile-Daphne-Fairhope, AL",N,N,0101,01101,01034,2017-2018,12,-2,-2,N
0100046,Sequel TSI Paint Rock Valley LLC,01,3890 County Road 20,Trenton,AL,35774,01,01071,Jackson County,34.766258,-86.175273,42460,"Scottsboro, AL",2,174,"Chattanooga-Cleveland-Dalton, TN-GA-AL",N,N,0105,01022,01008,2017-2018,42,-2,-2,N
0100060,Andalusia City,01,1201 C C Baker Avenue,Andalusia,AL,36421,01,01039,Covington County,31.327923,-86.482833,N,N,0,N,N,N,N,0102,01092,01031,2017-2018,33,0,1,33
0100090,Anniston City,01,4804 McClellan Boulevard,Anniston,AL,36206,01,01015,Calhoun County,33.708165,-85.822863,11500,"Anniston-Oxford-Jacksonville, AL",1,N,N,N,N,0103,01032,01012,2017-2018,13,0,1,13
0100100,Arab City,01,750 Arabian Dr NE,Arab,AL,35016,01,01095,Marshall County,34.328111,-86.487787,10700,"Albertville, AL",2,290,"Huntsville-Decatur-Albertville, AL",N,N,0104,01027,01009,2017-2018,41,23.36,2,"32, 41"
0100120,Athens City,01,455 US Highway 31 North,Athens,AL,35611,01,01083,Limestone County,34.8092,-86.949816,26620,"Huntsville, AL",1,290,"Huntsville-Decatur-Albertville, AL",N,N,0105,01005,01001,2017-2018,31,0,1,31
0100173,Compass Academy,01,101 Perryman Street,Evergreen,AL,36401,01,01035,Conecuh County,31.436051,-86.950303,N,N,0,N,N,N,N,0102,01068,01023,2017-2018,41,-2,-2,N
0100174,Etowah Academy,01,715 Raley Street,East Gadsden,AL,35903,01,01055,Etowah County,34.000607,-85.971084,23460,"Gadsden, AL",1,N,N,N,N,0104,01028,01010,2017-2018,13,-2,-2,N
0100175,POINTE Academy LLC,01,461 Donald Street,Mobile,AL,36617,01,01097,Mobile County,30.705444,-88.08365,33660,"Mobile, AL",1,380,"Mobile-Daphne-Fairhope, AL",N,N,0101,01099,01033,2017-2018,12,-2,-2,N
0100176,JF Ingram State Technical College,01,P O Box 220350,Deatsville,AL,36022,01,01051,Elmore County,32.582487,-86.39182,33860,"Montgomery, AL",1,N,N,N,N,0102,01031,01030,2017-2018,21,-2,-2,N
0100178,Higdon Hill School,01,6869 5th Ave S,Birmingham,AL,35212,01,01073,Jefferson County,33.548703,-86.730283,13820,"Birmingham-Hoover, AL",1,142,"Birmingham-Hoover-Talladega, AL",N,N,0107,01058,01018,2017-2018,12,-2,-2,N
0100179,The Bridge,01,3232 Lay Springs Road,Gadsden,AL,35901,01,01055,Etowah County,34.0711,-85.98,23460,"Gadsden, AL",1,N,N,N,N,0104,01029,01010,2017-2018,41,-2,-2,N
0100180,Attalla City,01,101 Case Ave,Attalla,AL,35954,01,01055,Etowah County,33.995794,-86.111442,23460,"Gadsden, AL",1,N,N,N,N,0104,01028,01010,2017-2018,23,0,1,23
0100181,Compass School,01,21280 Hwy 31,Flomaton,AL,36441,01,01053,Escambia County,31.006675,-87.268202,12120,"Atmore, AL",2,426,"Pensacola-Ferry Pass, FL-AL",N,N,0101,01066,01022,2017-2018,32,-2,-2,N
0100183,Alabama Clinical Schools,01,1221 Alton Dr,Birmingham,AL,35210,01,01073,Jefferson County,33.58486,-86.646003,13820,"Birmingham-Hoover, AL",1,142,"Birmingham-Hoover-Talladega, AL",N,N,0106,01044,01020,2017-2018,12,-2,-2,N
0100184,Excel Institute,01,1147 Walnut St,Gadsden,AL,35901,01,01055,Etowah County,34.011773,-86.02093,23460,"Gadsden, AL",1,N,N,N,N,0104,01028,01010,2017-2018,13,-2,-2,N
0100185,Saraland City,01,4010 Lil Spartan Drive,Saraland,AL,36571,01,01097,Mobile County,30.862118,-88.126675,33660,"Mobile, AL",1,380,"Mobile-Daphne-Fairhope, AL",N,N,0101,01098,01034,2017-2018,21,14.53,2,"21, 41"
0100186,Father Purcell Center,01,2048 West Fairview Ave,Montgomery,AL,36108,01,01101,Montgomery County,32.3514,-86.327,33860,"Montgomery, AL",1,N,N,N,N,0107,01078,01026,2017-2018,12,-2,-2,N
0100187,Montgomery Childrens Specialty Center,01,2853 Forbes Dr,Montgomery,AL,36110,01,01101,Montgomery County,32.424993,-86.286698,33860,"Montgomery, AL",1,N,N,N,N,0102,01078,01026,2017-2018,12,0,1,12
0100188,Chickasaw City,01,201 N Craft HWY,Chickasaw,AL,36611,01,01097,Mobile County,30.763732,-88.075055,33660,"Mobile, AL",1,380,"Mobile-Daphne-Fairhope, AL",N,N,0101,01097,01033,2017-2018,21,0,1,21
0100189,Satsuma City,01,220 Baker Road,Satsuma,AL,36572,01,01097,Mobile County,30.849239,-88.067799,33660,"Mobile, AL",1,380,"Mobile-Daphne-Fairhope, AL",N,N,0101,01098,01034,2017-2018,21,0,1,21
0100190,Alabaster City,01,1953 Municipal Way Suite 200,Alabaster,AL,35007,01,01117,Shelby County,33.232882,-86.825851,13820,"Birmingham-Hoover, AL",1,142,"Birmingham-Hoover-Talladega, AL",N,N,0106,01049,01014,2017-2018,21,0,1,21
0100191,Evergreen School,01,The University of Alabama Working on Womanhood Program 6001,Tuscaloosa,AL,35405,01,01125,Tuscaloosa County,33.208576,-87.545482,46220,"Tuscaloosa, AL",1,N,N,N,N,0107,01063,01021,2017-2018,13,-2,-2,N
0100192,Montgomery Public Schools MPS Classroom McInnis,01,3500 McInnis Rd,Montgomery,AL,36116,01,01101,Montgomery County,32.289643,-86.261572,33860,"Montgomery, AL",1,N,N,N,N,0102,01069,01026,2017-2018,41,-2,-2,N
0100193,St Marys Home,01,4350 Moffett Road,Mobile,AL,36618,01,01097,Mobile County,30.7215,-88.141561,33660,"Mobile, AL",1,380,"Mobile-Daphne-Fairhope, AL",N,N,0101,01099,01033,2017-2018,12,-2,-2,N
0100194,Pelham City,01,3113 Cummings Street,Pelham,AL,35124,01,01117,Shelby County,33.287805,-86.811981,13820,"Birmingham-Hoover, AL",1,142,"Birmingham-Hoover-Talladega, AL",N,N,0106,01073,01015,2017-2018,21,19.12,2,"21, 41"
0100195,Pike Road City,01,500 Avenue of Learning,Pike Road,AL,36064,01,01101,Montgomery County,32.33818,-86.028202,33860,"Montgomery, AL",1,N,N,N,N,0103,01075,01025,2017-2018,41,0,1,41
0100196,Gardendale City,01,919 Sharit Avenue Suite 213,Gardendale,AL,35071,01,01073,Jefferson County,33.649009,-86.814546,13820,"Birmingham-Hoover, AL",1,142,"Birmingham-Hoover-Talladega, AL",N,N,0106,01051,01017,2017-2018,21,0,1,21
0100197,Acceleration Day and Evening Academy,01,3100 Cottage Hill Rd,Mobile,AL,36606,01,01097,Mobile County,30.668018,-88.11973,33660,"Mobile, AL",1,380,"Mobile-Daphne-Fairhope, AL",N,N,0101,01103,01033,2017-2018,12,0,1,12
0100198,Sequel TSI Montgomery LLC,01,135 Mildred St135 MILDRED STREET,MONTGOMERY,AL,36104,01,01101,Montgomery County,32.37077,-86.311637,33860,"Montgomery, AL",1,N,N,N,N,0102,01077,01026,2017-2018,12,-2,-2,N
0100199,University Charter School,01,108 School Street,Livingston,AL,35470,01,01119,Sumter County,32.586288,-88.189067,N,N,0,N,N,N,N,0107,01072,01024,2017-2018,43,0,1,43
0100210,Auburn City,01,855 E Samford Ave,Auburn,AL,36830,01,01081,Lee County,32.59894,-85.464121,12220,"Auburn-Opelika, AL",1,194,"Columbus-Auburn-Opelika, GA-AL",N,N,0103,01079,01027,2017-2018,13,12.63,2,"13, 41"
0100240,Autauga County,01,153 W 4th St,Prattville,AL,36067,01,01001,Autauga County,32.46275,-86.474211,33860,"Montgomery, AL",1,N,N,N,N,0102,01088,01030,2017-2018,41,62.05,3,"21, 41, 42"
0100270,Baldwin County,01,2600A North Hand Ave,Bay Minette,AL,36507,01,01003,Baldwin County,30.912515,-87.787491,19300,"Daphne-Fairhope-Foley, AL",1,380,"Mobile-Daphne-Fairhope, AL",N,N,0101,01064,01022,2017-2018,41,69.67,7,"13, 21, 23, 31, 32, 41, 42"
0100300,Barbour County,01,PO Box 429,Clayton,AL,36016,01,01005,Barbour County,31.878135,-85.450043,21640,"Eufaula, AL-GA",2,N,N,N,N,0102,01084,01028,2017-2018,43,0,1,43
0100330,Bessemer City,01,1621 5th Ave N,Bessemer,AL,35020,01,01073,Jefferson County,33.401041,-86.957423,13820,"Birmingham-Hoover, AL",1,142,"Birmingham-Hoover-Talladega, AL",N,N,0107,01056,01019,2017-2018,21,0,1,21
0100360,Bibb County,01,721 Walnut Street,Centreville,AL,35042,01,01007,Bibb County,32.945405,-87.143254,13820,"Birmingham-Hoover, AL",1,142,"Birmingham-Hoover-Talladega, AL",N,N,0106,01049,01014,2017-2018,32,50.91,3,"31, 32, 42"
0100390,Birmingham City,01,2015 Park Place North,Birmingham,AL,35203,01,01073,Jefferson County,33.519899,-86.808778,13820,"Birmingham-Hoover, AL",1,142,"Birmingham-Hoover-Talladega, AL",N,N,0107,01054,01018,2017-2018,12,2.24,2,"12, 41"
0100420,Blount County,01,204 2nd Ave East,Oneonta,AL,35121,01,01009,Blount County,33.946027,-86.476206,13820,"Birmingham-Hoover, AL",1,142,"Birmingham-Hoover-Talladega, AL",N,N,0106,01034,01017,2017-2018,42,9.85,3,"32, 41, 42"
0100450,Brewton City,01,811 Belleville Ave,Brewton,AL,36426,01,01053,Escambia County,31.1177,-87.0723,12120,"Atmore, AL",2,426,"Pensacola-Ferry Pass, FL-AL",N,N,0101,01066,01022,2017-2018,32,31.79,2,"32, 41"
0100480,Bullock County,01,108 Hardaway Avenue,Union Springs,AL,36089,01,01011,Bullock County,32.144752,-85.716937,N,N,0,N,N,N,N,0102,01084,01028,2017-2018,32,0,1,32
0100510,Butler County,01,211 School Highlands Road,Greenville,AL,36037,01,01013,Butler County,31.815031,-86.626547,N,N,0,N,N,N,N,0102,01090,01023,2017-2018,32,49.54,3,"32, 41, 43"
0100540,Calhoun County,01,4400 McClellan Blvd,Anniston,AL,36206,01,01015,Calhoun County,33.69753,-85.824331,11500,"Anniston-Oxford-Jacksonville, AL",1,N,N,N,N,0103,01032,01012,2017-2018,41,51.93,4,"13, 23, 41, 42"
0100600,Chambers County,01,1298  AVC Drive,Lafayette,AL,36862,01,01017,Chambers County,32.890345,-85.382695,46740,"Valley, AL",2,194,"Columbus-Auburn-Opelika, GA-AL",N,N,0103,01037,01013,2017-2018,32,21.48,2,"32, 42"
0100630,Cherokee County,01,130 E Main St,Centre,AL,35960,01,01019,Cherokee County,34.151676,-85.678793,N,N,0,N,N,N,N,0103,01039,01010,2017-2018,42,55.12,3,"32, 41, 42"
0100660,Chilton County,01,1705 Lay Dam Rd,Clanton,AL,35045,01,01021,Chilton County,32.86855,-86.621991,13820,"Birmingham-Hoover, AL",1,142,"Birmingham-Hoover-Talladega, AL",N,N,0106,01042,01014,2017-2018,42,46.85,3,"32, 41, 42"
0100690,Choctaw County,01,107 Tom Orr Dr,Butler,AL,36904,01,01023,Choctaw County,32.07944,-88.233236,N,N,0,N,N,N,N,0107,01065,01024,2017-2018,43,0,1,43
0100720,Clarke County,01,155 W Cobb St,Grove Hill,AL,36451,01,01025,Clarke County,31.709669,-87.780118,N,N,0,N,N,N,N,0101,01065,01022,2017-2018,43,62.8,3,"33, 41, 43"
0100750,Clay County,01,62 Court Square,Ashland,AL,36251,01,01027,Clay County,33.274843,-85.835692,N,N,0,N,N,N,N,0103,01035,01012,2017-2018,42,0,1,42
0100780,Cleburne County,01,141 Davenport Drive,Heflin,AL,36264,01,01029,Cleburne County,33.677552,-85.552646,N,N,0,N,N,N,N,0103,01039,01013,2017-2018,42,0,1,42
0100810,Coffee County,01,400 Reddoch Hill Rd,Elba,AL,36323,01,01031,Coffee County,31.4109,-86.0563,21460,"Enterprise, AL",2,222,"Dothan-Enterprise-Ozark, AL",N,N,0102,01091,01031,2017-2018,42,38.77,2,"42, 43"
0100840,Colbert County,01,425 Highway 72 West,Tuscumbia,AL,35674,01,01033,Colbert County,34.714351,-87.702389,22520,"Florence-Muscle Shoals, AL",1,N,N,N,N,0104,01018,01006,2017-2018,41,37.94,2,"41, 42"
0100870,Conecuh County,01,1455 Ted Bates Road,Evergreen,AL,36401,01,01035,Conecuh County,31.455421,-86.969959,N,N,0,N,N,N,N,0102,01068,01023,2017-2018,41,31.87,3,"33, 41, 42"
0100900,Coosa County,01,73 Nixburg Road,Rockford,AL,35136,01,01037,Coosa County,32.887557,-86.222306,45180,"Talladega-Sylacauga, AL",2,142,"Birmingham-Hoover-Talladega, AL",N,N,0106,01033,01030,2017-2018,43,0,1,43
0100930,Covington County,01,807 C C Baker Ave,Andalusia,AL,36421,01,01039,Covington County,31.32154,-86.481711,N,N,0,N,N,N,N,0102,01092,01031,2017-2018,42,40.14,3,"41, 42, 43"
0100960,Crenshaw County,01,183 Votec Drive,Luverne,AL,36049,01,01041,Crenshaw County,31.705059,-86.267718,N,N,0,N,N,N,N,0102,01090,01025,2017-2018,43,37.47,2,"42, 43"
0100990,Cullman City,01,301 1st St N E,Cullman,AL,35055,01,01043,Cullman County,34.179015,-86.840793,18980,"Cullman, AL",2,142,"Birmingham-Hoover-Talladega, AL",N,N,0104,01012,01004,2017-2018,32,0,1,32
0101020,Cullman County,01,402 Arnold St NE,Cullman,AL,35055,01,01043,Cullman County,34.180941,-86.84041,18980,"Cullman, AL",2,142,"Birmingham-Hoover-Talladega, AL",N,N,0104,01012,01004,2017-2018,42,42.04,3,"32, 41, 42"
0101050,Dale County,01,202 S Hwy 123 Suite E,Ozark,AL,36360,01,01045,Dale County,31.316339,-85.546946,37120,"Ozark, AL",2,222,"Dothan-Enterprise-Ozark, AL",N,N,0102,01093,01029,2017-2018,42,49.64,3,"31, 41, 42"
0101080,Daleville City,01,626 N Daleville Ave,Daleville,AL,36322,01,01045,Dale County,31.31601,-85.710273,37120,"Ozark, AL",2,222,"Dothan-Enterprise-Ozark, AL",N,N,0102,01093,01029,2017-2018,32,0,1,32
0101110,Dallas County,01,429 Lauderdale St,Selma,AL,36701,01,01047,Dallas County,32.4118,-87.0236,42820,"Selma, AL",2,N,N,N,N,0107,01067,01023,2017-2018,42,49.53,3,"41, 42, 43"
0101140,DeKalb County,01,306 Main St W,Rainsville,AL,35986,01,01049,DeKalb County,34.566801,-85.569092,22840,"Fort Payne, AL",2,290,"Huntsville-Decatur-Albertville, AL",N,N,0104,01024,01008,2017-2018,42,2.87,3,"32, 42, 43"
0101170,Decatur City,01,302 4th Ave NE,Decatur,AL,35601,01,01103,Morgan County,34.606,-86.9825,19460,"Decatur, AL",1,290,"Huntsville-Decatur-Albertville, AL",N,N,0105,01008,01003,2017-2018,13,0,1,13
0101200,Demopolis City,01,609 South Cedar Avenue,Demopolis,AL,36732,01,01091,Marengo County,32.510583,-87.834922,N,N,0,N,N,N,N,0107,01072,01024,2017-2018,33,30.83,2,"33, 41"
0101230,Dothan City,01,500 Dusy Street,Dothan,AL,36301,01,01069,Houston County,31.217985,-85.394976,20020,"Dothan, AL",1,222,"Dothan-Enterprise-Ozark, AL",N,N,0102,01085,01028,2017-2018,13,9.11,2,"13, 41"
0101260,Elba City,01,131 Tiger Dr,Elba,AL,36323,01,01031,Coffee County,31.424421,-86.102668,21460,"Enterprise, AL",2,222,"Dothan-Enterprise-Ozark, AL",N,N,0102,01090,01031,2017-2018,43,0,1,43
0101290,Elmore County,01,100 H H Robison Drive,Wetumpka,AL,36092,01,01051,Elmore County,32.55016,-86.219743,33860,"Montgomery, AL",1,N,N,N,N,0102,01031,01030,2017-2018,21,65.04,4,"21, 31, 41, 42"
0101320,Enterprise City,01,220 Hutchinson St,Enterprise,AL,36330,01,01031,Coffee County,31.324232,-85.852006,21460,"Enterprise, AL",2,222,"Dothan-Enterprise-Ozark, AL",N,N,0102,01091,01031,2017-2018,32,7.98,2,"32, 41"
0101350,Escambia County,01,301 Belleville Ave,Brewton,AL,36426,01,01053,Escambia County,31.106169,-87.071849,12120,"Atmore, AL",2,426,"Pensacola-Ferry Pass, FL-AL",N,N,0101,01066,01022,2017-2018,32,37.07,4,"32, 41, 42, 43"
0101380,Etowah County,01,3200 W Meighan Blvd,Gadsden,AL,35904,01,01055,Etowah County,34.0223,-86.0544,23460,"Gadsden, AL",1,N,N,N,N,0104,01029,01010,2017-2018,23,45.5,3,"23, 41, 42"
0101410,Eufaula City,01,333 State Docks Road,Eufaula,AL,36027,01,01005,Barbour County,31.867992,-85.151572,21640,"Eufaula, AL-GA",2,N,N,N,N,0102,01084,01028,2017-2018,41,23.44,2,"32, 41"
0101440,Fairfield City,01,6405 Ave D,Fairfield,AL,35064,01,01073,Jefferson County,33.474518,-86.915058,13820,"Birmingham-Hoover, AL",1,142,"Birmingham-Hoover-Talladega, AL",N,N,0107,01055,01019,2017-2018,21,0,1,21
0101470,Fayette County,01,103 First Ave NW,Fayette,AL,35555,01,01057,Fayette County,33.6859,-87.8312,N,N,0,N,N,N,N,0104,01016,01005,2017-2018,42,58.03,3,"32, 41, 42"
0101530,Florence City,01,102 S Court Street,Florence,AL,35630,01,01077,Lauderdale County,34.79955,-87.675921,22520,"Florence-Muscle Shoals, AL",1,N,N,N,N,0105,01001,01006,2017-2018,13,0,1,13
0101560,Fort Payne City,01,205 45th St NE,Fort Payne,AL,35967,01,01049,DeKalb County,34.486206,-85.673755,22840,"Fort Payne, AL",2,290,"Huntsville-Decatur-Albertville, AL",N,N,0104,01024,01008,2017-2018,32,0,1,32
0101590,Franklin County,01,500 Coffee Ave NE,Russellville,AL,35653,01,01059,Franklin County,34.508299,-87.727046,N,N,0,N,N,N,N,0104,01018,01006,2017-2018,42,31.09,2,"42, 43"
0101620,Gadsden City,01,1026 Chestnut St,Gadsden,AL,35901,01,01055,Etowah County,34.014,-86.0169,23460,"Gadsden, AL",1,N,N,N,N,0104,01028,01010,2017-2018,13,0,1,13
0101640,Geneva City,01,511 Panther Drive,Geneva,AL,36340,01,01061,Geneva County,31.043864,-85.881269,20020,"Dothan, AL",1,222,"Dothan-Enterprise-Ozark, AL",N,N,0102,01087,01029,2017-2018,32,48.84,2,"32, 41"
0101660,Geneva County,01,606 S Academy St,Geneva,AL,36340,01,01061,Geneva County,31.031117,-85.866475,20020,"Dothan, AL",1,222,"Dothan-Enterprise-Ozark, AL",N,N,0102,01087,01029,2017-2018,42,25.49,3,"32, 42, 43"
0101680,Greene County,01,220 Main St,Eutaw,AL,35462,01,01063,Greene County,32.841464,-87.889358,N,N,0,N,N,N,N,0107,01072,01024,2017-2018,42,0,1,42
0101690,Guntersville City,01,4200 Highway 79 South,Guntersville,AL,35976,01,01095,Marshall County,34.30894,-86.339271,10700,"Albertville, AL",2,290,"Huntsville-Decatur-Albertville, AL",N,N,0104,01027,01009,2017-2018,32,0,1,32
0101710,Hale County,01,1115 Powers St,Greensboro,AL,36744,01,01065,Hale County,32.70705,-87.593647,46220,"Tuscaloosa, AL",1,N,N,N,N,0107,01072,01024,2017-2018,31,48.89,2,"31, 42"
0101720,Haleyville City,01,2011 20th St,Haleyville,AL,35565,01,01133,Winston County,34.225543,-87.60498,N,N,0,N,N,N,N,0104,01017,01004,2017-2018,41,0,1,41
0101730,Hartselle City,01,305 College St NE,Hartselle,AL,35640,01,01103,Morgan County,34.4465,-86.931,19460,"Decatur, AL",1,290,"Huntsville-Decatur-Albertville, AL",N,N,0105,01009,01003,2017-2018,23,45.32,2,"23, 41"
0101740,Henry County,01,300 N Trawick Street,Abbeville,AL,36310,01,01067,Henry County,31.566851,-85.252131,20020,"Dothan, AL",1,222,"Dothan-Enterprise-Ozark, AL",N,N,0102,01085,01028,2017-2018,42,70.72,3,"31, 41, 42"
0101760,Homewood City,01,450 Dale Avenue,Homewood,AL,35209,01,01073,Jefferson County,33.477464,-86.80551,13820,"Birmingham-Hoover, AL",1,142,"Birmingham-Hoover-Talladega, AL",N,N,0107,01052,01018,2017-2018,21,0,1,21
0101770,Houston County,01,404 West Washington St,Dothan,AL,36302,01,01069,Houston County,31.2207,-85.3972,20020,"Dothan, AL",1,222,"Dothan-Enterprise-Ozark, AL",N,N,0102,01085,01028,2017-2018,41,33.04,3,"13, 41, 42"
0101800,Huntsville City,01,200 White St,Huntsville,AL,35801,01,01089,Madison County,34.7342,-86.5778,26620,"Huntsville, AL",1,290,"Huntsville-Decatur-Albertville, AL",N,N,0105,01021,01007,2017-2018,12,0,1,12
0101830,Jackson County,01,16003 Al Hwy 35,Scottsboro,AL,35768,01,01071,Jackson County,34.675199,-86.061521,42460,"Scottsboro, AL",2,174,"Chattanooga-Cleveland-Dalton, TN-GA-AL",N,N,0105,01023,01008,2017-2018,42,9.79,3,"32, 41, 42"
0101860,Jacksonville City,01,123 College St SW,Jacksonville,AL,36265,01,01015,Calhoun County,33.814819,-85.766097,11500,"Anniston-Oxford-Jacksonville, AL",1,N,N,N,N,0103,01040,01012,2017-2018,13,0,1,13
0101890,Jasper City,01,110 W 17th St,Jasper,AL,35501,01,01127,Walker County,33.835022,-87.276626,13820,"Birmingham-Hoover, AL",1,142,"Birmingham-Hoover-Talladega, AL",N,N,0104,01013,01005,2017-2018,32,0,1,32
0101920,Jefferson County,01,2100 18th Street S,Birmingham,AL,35209,01,01073,Jefferson County,33.4871,-86.7926,13820,"Birmingham-Hoover, AL",1,142,"Birmingham-Hoover-Talladega, AL",N,N,0107,01052,01018,2017-2018,21,43.37,4,"12, 21, 41, 42"
0101950,Lamar County,01,150 Butler Cir,Vernon,AL,35592,01,01075,Lamar County,33.753695,-88.115146,N,N,0,N,N,N,N,0104,01017,01021,2017-2018,43,0,1,43
0101980,Lanett City,01,105 North Lanier Ave,Lanett,AL,36863,01,01017,Chambers County,32.86836,-85.191461,46740,"Valley, AL",2,194,"Columbus-Auburn-Opelika, GA-AL",N,N,0103,01037,01013,2017-2018,32,0,1,32
0102010,Lauderdale County,01,355 County Road 61,Florence,AL,35634,01,01077,Lauderdale County,34.832753,-87.622315,22520,"Florence-Muscle Shoals, AL",1,N,N,N,N,0105,01002,01001,2017-2018,42,40.38,4,"13, 23, 41, 42"
0102040,Lawrence County,01,14131 Market St,Moulton,AL,35650,01,01079,Lawrence County,34.4755,-87.2926,19460,"Decatur, AL",1,290,"Huntsville-Decatur-Albertville, AL",N,N,0104,01007,01004,2017-2018,42,66.78,3,"32, 41, 42"
0102070,Lee County,01,2410 Society Hill Road,Opelika,AL,36804,01,01081,Lee County,32.620993,-85.39166,12220,"Auburn-Opelika, AL",1,194,"Columbus-Auburn-Opelika, GA-AL",N,N,0103,01083,01013,2017-2018,21,44.93,3,"21, 41, 42"
0102100,Limestone County,01,300 S Jefferson St,Athens,AL,35611,01,01083,Limestone County,34.800964,-86.972551,26620,"Huntsville, AL",1,290,"Huntsville-Decatur-Albertville, AL",N,N,0105,01005,01001,2017-2018,42,46.91,4,"21, 31, 41, 42"
0102130,Linden City,01,209 N Main St,Linden,AL,36748,01,01091,Marengo County,32.307675,-87.797743,N,N,0,N,N,N,N,0107,01065,01023,2017-2018,43,0,1,43
0102160,Lowndes County,01,80 Commerce Street S,Hayneville,AL,36040,01,01085,Lowndes County,32.181682,-86.581037,33860,"Montgomery, AL",1,N,N,N,N,0107,01069,01023,2017-2018,42,0,1,42
0102190,Macon County,01,501 South School St,Tuskegee,AL,36083,01,01087,Macon County,32.421471,-85.685334,N,N,0,N,N,N,N,0103,01082,01028,2017-2018,32,44.75,3,"32, 41, 42"
0102220,Madison County,01,1275F Jordan Rd Bldg B,Huntsville,AL,35811,01,01089,Madison County,34.785482,-86.523002,26620,"Huntsville, AL",1,290,"Huntsville-Decatur-Albertville, AL",N,N,0105,01021,01007,2017-2018,21,51.62,4,"21, 31, 41, 42"
0102250,Marengo County,01,101 North Shiloh,Linden,AL,36748,01,01091,Marengo County,32.306496,-87.796738,N,N,0,N,N,N,N,0107,01065,01023,2017-2018,43,25.62,2,"42, 43"
0102310,Marion County,01,188 Winchester Dr,Hamilton,AL,35570,01,01093,Marion County,34.116746,-87.994381,N,N,0,N,N,N,N,0104,01017,01006,2017-2018,43,71.65,4,"33, 41, 42, 43"
0102350,Midfield City,01,417 Parkwood St,Midfield,AL,35228,01,01073,Jefferson County,33.459214,-86.911176,13820,"Birmingham-Hoover, AL",1,142,"Birmingham-Hoover-Talladega, AL",N,N,0107,01057,01019,2017-2018,21,0,1,21
0102370,Mobile County,01,PO Box 1800691 Magnum Pass,Mobile,AL,36618,01,01097,Mobile County,30.718638,-88.219762,33660,"Mobile, AL",1,380,"Mobile-Daphne-Fairhope, AL",N,N,0101,01102,01034,2017-2018,12,56.12,5,"12, 21, 31, 41, 42"
0102400,Monroe County,01,109 Pickens St,Monroeville,AL,36460,01,01099,Monroe County,31.518144,-87.317616,N,N,0,N,N,N,N,0101,01068,01023,2017-2018,43,69.58,4,"33, 41, 42, 43"
0102430,Montgomery County,01,307 S Decatur St,Montgomery,AL,36104,01,01101,Montgomery County,32.3739,-86.3023,33860,"Montgomery, AL",1,N,N,N,N,0102,01077,01026,2017-2018,12,13.69,4,"12, 21, 41, 42"
0102480,Morgan County,01,235 Highway 67 South,Decatur,AL,35603,01,01103,Morgan County,34.52823,-86.90049,19460,"Decatur, AL",1,290,"Huntsville-Decatur-Albertville, AL",N,N,0105,01004,01003,2017-2018,42,55.78,3,"23, 41, 42"
0102490,Mountain Brook City,01,32 Vine Street,Mountain Brook,AL,35213,01,01073,Jefferson County,33.5022,-86.754,13820,"Birmingham-Hoover, AL",1,142,"Birmingham-Hoover-Talladega, AL",N,N,0106,01046,01015,2017-2018,21,0,1,21
0102520,Muscle Shoals City,01,3200 S Wilson Dam Rd,Muscle Shoals,AL,35661,01,01033,Colbert County,34.733611,-87.63556,22520,"Florence-Muscle Shoals, AL",1,N,N,N,N,0104,01003,01006,2017-2018,13,0,1,13
0102550,Oneonta City,01,27605 State Highway 75,Oneonta,AL,35121,01,01009,Blount County,33.93388,-86.49698,13820,"Birmingham-Hoover, AL",1,142,"Birmingham-Hoover-Talladega, AL",N,N,0106,01034,01017,2017-2018,41,0,1,41
0102580,Opelika City,01,300 Simmons Street,Opelika,AL,36801,01,01081,Lee County,32.64427,-85.391232,12220,"Auburn-Opelika, AL",1,194,"Columbus-Auburn-Opelika, GA-AL",N,N,0103,01083,01027,2017-2018,13,7.08,2,"13, 41"
0102610,Opp City,01,305 E Stewart Ave,Opp,AL,36467,01,01039,Covington County,31.2866,-86.250821,N,N,0,N,N,N,N,0102,01092,01031,2017-2018,41,30.84,2,"33, 41"
0102635,Oxford City,01,402 Main Street,Oxford,AL,36203,01,01015,Calhoun County,33.61588,-85.835271,11500,"Anniston-Oxford-Jacksonville, AL",1,N,N,N,N,0103,01032,01012,2017-2018,13,24.53,3,"13, 23, 41"
0102640,Ozark City,01,1044 Andrews Avenue,Ozark,AL,36360,01,01045,Dale County,31.45128,-85.65335,37120,"Ozark, AL",2,222,"Dothan-Enterprise-Ozark, AL",N,N,0102,01089,01029,2017-2018,31,0,1,31
0102650,Pell City,01,3105 15th Avenue N,Pell City,AL,35125,01,01115,St. Clair County,33.605865,-86.273974,13820,"Birmingham-Hoover, AL",1,142,"Birmingham-Hoover-Talladega, AL",N,N,0103,01036,01011,2017-2018,32,32.47,2,"32, 41"
0102670,Perry County,01,200 Monroe St,Marion,AL,36756,01,01105,Perry County,32.634199,-87.320671,N,N,0,N,N,N,N,0107,01072,01023,2017-2018,43,0,1,43
0102700,Phenix City,01,1212 Ninth Ave,Phenix City,AL,36867,01,01113,Russell County,32.46985,-85.004391,17980,"Columbus, GA-AL",1,194,"Columbus-Auburn-Opelika, GA-AL",N,N,0103,01083,01028,2017-2018,21,9.03,2,"21, 41"
0102730,Pickens County,01,377 Ladow Center Circle,Carrollton,AL,35447,01,01107,Pickens County,33.254972,-88.168294,46220,"Tuscaloosa, AL",1,N,N,N,N,0107,01071,01024,2017-2018,42,32.81,2,"42, 43"
0102760,Piedmont City,01,502 Hood St W,Piedmont,AL,36272,01,01015,Calhoun County,33.927086,-85.615744,11500,"Anniston-Oxford-Jacksonville, AL",1,N,N,N,N,0103,01039,01012,2017-2018,31,28.16,2,"31, 41"
0102790,Pike County,01,101 W Love Street,Troy,AL,36081,01,01109,Pike County,31.806347,-85.972993,45980,"Troy, AL",2,N,N,N,N,0102,01089,01031,2017-2018,42,0.09,3,"33, 41, 42"
0102820,Randolph County,01,182 Circle Drive,Wedowee,AL,36278,01,01111,Randolph County,33.31213,-85.476798,N,N,0,N,N,N,N,0103,01037,01013,2017-2018,43,30.78,2,"42, 43"
0102850,Roanoke City,01,557 Main St,Roanoke,AL,36274,01,01111,Randolph County,33.150495,-85.369258,N,N,0,N,N,N,N,0103,01037,01013,2017-2018,32,36.11,3,"32, 41, 43"
0102880,Russell County,01,506 14th St,Phenix City,AL,36867,01,01113,Russell County,32.47306,-84.999981,17980,"Columbus, GA-AL",1,194,"Columbus-Auburn-Opelika, GA-AL",N,N,0103,01083,01028,2017-2018,42,32.88,2,"21, 42"
0102910,Russellville City,01,1945 Waterloo Rd,Russellville,AL,35653,01,01059,Franklin County,34.52606,-87.737623,N,N,0,N,N,N,N,0104,01018,01006,2017-2018,32,0,1,32
0102940,Scottsboro City,01,305 S Scott Street,Scottsboro,AL,35768,01,01071,Jackson County,34.670394,-86.030583,42460,"Scottsboro, AL",2,174,"Chattanooga-Cleveland-Dalton, TN-GA-AL",N,N,0105,01023,01008,2017-2018,32,0,1,32
0102970,Selma City,01,2194 Broad Street,Selma,AL,36701,01,01047,Dallas County,32.4292,-87.0243,42820,"Selma, AL",2,N,N,N,N,0107,01067,01023,2017-2018,32,0,1,32
0103000,Sheffield City,01,300 W 6th St,Sheffield,AL,35660,01,01033,Colbert County,34.764331,-87.70139,22520,"Florence-Muscle Shoals, AL",1,N,N,N,N,0104,01003,01006,2017-2018,23,0,1,23
0103030,Shelby County,01,410 E College St,Columbiana,AL,35051,01,01117,Shelby County,33.180301,-86.602213,13820,"Birmingham-Hoover, AL",1,142,"Birmingham-Hoover-Talladega, AL",N,N,0106,01041,01011,2017-2018,21,45.67,4,"21, 31, 41, 42"
0103062,St Clair County,01,410 Roy Drive,Ashville,AL,35953,01,01115,St. Clair County,33.819,-86.2696,13820,"Birmingham-Hoover, AL",1,142,"Birmingham-Hoover-Talladega, AL",N,N,0103,01030,01017,2017-2018,42,61.15,4,"21, 31, 41, 42"
0103090,Sumter County,01,Hwy 28 To Country Club Dr,Livingston,AL,35470,01,01119,Sumter County,32.619641,-88.1949,N,N,0,N,N,N,N,0107,01072,01024,2017-2018,43,0,1,43
0103120,Sylacauga City,01,43 N Broadway Avenue,Sylacauga,AL,35150,01,01121,Talladega County,33.16894,-86.251201,45180,"Talladega-Sylacauga, AL",2,142,"Birmingham-Hoover-Talladega, AL",N,N,0103,01033,01011,2017-2018,32,0,1,32
0103150,Talladega City,01,501 South Street East,Talladega,AL,35160,01,01121,Talladega County,33.4315,-86.1096,45180,"Talladega-Sylacauga, AL",2,142,"Birmingham-Hoover-Talladega, AL",N,N,0103,01035,01011,2017-2018,41,26.67,2,"32, 41"
0103180,Talladega County,01,106 W South St,Talladega,AL,35160,01,01121,Talladega County,33.432428,-86.102472,45180,"Talladega-Sylacauga, AL",2,142,"Birmingham-Hoover-Talladega, AL",N,N,0103,01035,01011,2017-2018,42,55.62,3,"32, 41, 42"
0103210,Tallapoosa County,01,679 East Columbus Street,Dadeville,AL,36853,01,01123,Tallapoosa County,32.830264,-85.754307,10760,"Alexander City, AL",2,142,"Birmingham-Hoover-Talladega, AL",N,N,0103,01082,01027,2017-2018,42,0,1,42
0103240,Tallassee City,01,308 King St,Tallassee,AL,36078,01,01051,Elmore County,32.5368,-85.8929,33860,"Montgomery, AL",1,N,N,N,N,0102,01031,01025,2017-2018,41,30.41,2,"32, 41"
0103270,Tarrant City,01,1318 Alabama St,Tarrant,AL,35217,01,01073,Jefferson County,33.57261,-86.779999,13820,"Birmingham-Hoover, AL",1,142,"Birmingham-Hoover-Talladega, AL",N,N,0107,01059,01020,2017-2018,21,0,1,21
0103300,Thomasville City,01,750 Gates Drive,Thomasville,AL,36784,01,01025,Clarke County,31.88773,-87.735221,N,N,0,N,N,N,N,0107,01068,01024,2017-2018,33,0,1,33
0103330,Troy City,01,358 Elba Hwy,Troy,AL,36079,01,01109,Pike County,31.781294,-85.963529,45980,"Troy, AL",2,N,N,N,N,0102,01089,01031,2017-2018,41,0.05,2,"33, 41"
0103360,Tuscaloosa City,01,1210 21st Ave,Tuscaloosa,AL,35401,01,01125,Tuscaloosa County,33.2038,-87.5614,46220,"Tuscaloosa, AL",1,N,N,N,N,0107,01063,01021,2017-2018,13,16.06,2,"13, 41"
0103390,Tuscaloosa County,01,PO Drawer 2568,Tuscaloosa,AL,35403,01,01125,Tuscaloosa County,33.203636,-87.566298,46220,"Tuscaloosa, AL",1,N,N,N,N,0107,01063,01021,2017-2018,22,46.6,4,"13, 22, 41, 42"
0103420,Tuscumbia City,01,303 North Commons Street East,Tuscumbia,AL,35674,01,01033,Colbert County,34.73662,-87.700111,22520,"Florence-Muscle Shoals, AL",1,N,N,N,N,0104,01003,01006,2017-2018,23,0,1,23
0103430,Vestavia Hills City,01,1204 Montgomery Hwy,Vestavia Hills,AL,35216,01,01073,Jefferson County,33.4319,-86.7886,13820,"Birmingham-Hoover, AL",1,142,"Birmingham-Hoover-Talladega, AL",N,N,0106,01047,01016,2017-2018,21,0,1,21
0103450,Walker County,01,1710 Alabama Av,Jasper,AL,35501,01,01127,Walker County,33.834179,-87.274959,13820,"Birmingham-Hoover, AL",1,142,"Birmingham-Hoover-Talladega, AL",N,N,0104,01013,01005,2017-2018,42,43.73,5,"31, 32, 41, 42, 43"
0103480,Washington County,01,229 Granade St,Chatom,AL,36518,01,01129,Washington County,31.465862,-88.257989,N,N,0,N,N,N,N,0101,01065,01022,2017-2018,43,38.85,2,"42, 43"
0103510,Wilcox County,01,75 Camden Bypass,Camden,AL,36726,01,01131,Wilcox County,32.003296,-87.290119,N,N,0,N,N,N,N,0107,01069,01023,2017-2018,43,14.65,2,"42, 43"
0103540,Winfield City,01,481 Apple Ave,Winfield,AL,35594,01,01093,Marion County,33.931415,-87.812039,N,N,0,N,N,N,N,0104,01017,01006,2017-2018,43,0,1,43
0103580,Winston County,01,25101 Highway 195,Double Springs,AL,35553,01,01133,Winston County,34.146071,-87.402788,N,N,0,N,N,N,N,0104,01017,01005,2017-2018,43,24.82,2,"42, 43"
0200001,Lower Kuskokwim School District,02,1004 Ron Edwards Memorial Dr,Bethel,AK,99559,02,02050,Bethel Census Area,60.8026,-161.7704,N,N,0,N,N,N,N,0200,02038,0200S,2017-2018,43,38.19,4,"33, 41, 42, 43"
0200003,Lower Yukon School District,02,100 Airport Rd,Mountain Village,AK,99632,02,02158,Kusilvak Census Area,62.778473,-164.528906,N,N,0,N,N,N,N,0200,02039,0200T,2017-2018,43,0,1,43
0200004,Yupiit School District,02,1st Main St,Akiachak,AK,99551,02,02050,Bethel Census Area,60.913883,-161.448992,N,N,0,N,N,N,N,0200,02038,0200S,2017-2018,43,0,1,43
0200005,Kashunamiut School District,02,985 KSD Way,Chevak,AK,99563,02,02158,Kusilvak Census Area,61.531007,-165.585439,N,N,0,N,N,N,N,0200,02039,0200T,2017-2018,43,0,1,43
0200006,Mount Edgecumbe High School Agency,02,1330 Seward Ave,Sitka,AK,99835,02,02220,Sitka City and Borough,57.050928,-135.351918,N,N,0,N,N,N,N,0200,02035,0200R,2017-2018,41,0,1,41
0200007,Aleutians East Borough School District,02,100 Mossberry Ln,Sand Point,AK,99661,02,02013,Aleutians East Borough,55.340235,-160.498127,N,N,0,N,N,N,N,0200,02037,0200S,2017-2018,43,0,1,43
0200010,Aleutian Region School District,02,118 E International Airport Rd,Anchorage,AK,99518,02,02020,Anchorage Municipality,61.1736,-149.882,11260,"Anchorage, AK",1,N,N,N,N,0200,02023,0200L,2017-2018,43,0,1,43
0200020,Bering Strait School District,02,225 Main St,Unalakleet,AK,99684,02,02180,Nome Census Area,63.876727,-160.793772,N,N,0,N,N,N,N,0200,02039,0200T,2017-2018,43,0,1,43
0200030,Bristol Bay Borough School District,02,# 2 School Rd N,Naknek,AK,99633,02,02060,Bristol Bay Borough,58.7333,-157.0046,N,N,0,N,N,N,N,0200,02037,0200S,2017-2018,43,0,1,43
0200050,Alaska Gateway School District,02,1313.5 Alaska Hwy,Tok,AK,99780,02,02240,Southeast Fairbanks Census Area,63.333206,-142.958861,N,N,0,N,N,N,N,0200,02006,0200C,2017-2018,43,0,1,43
0200060,Cordova City School District,02,675 Second St,Cordova,AK,99574,02,02261,Valdez-Cordova Census Area,60.544456,-145.757522,N,N,0,N,N,N,N,0200,02032,0200P,2017-2018,43,0,1,43
0200070,Copper River School District,02,1976 Aurora Dr,Glennallen,AK,99588,02,02261,Valdez-Cordova Census Area,62.112478,-145.529878,N,N,0,N,N,N,N,0200,02009,0200E,2017-2018,43,0,1,43
0200090,Craig City School District,02,100 School Rd,Craig,AK,99921,02,02198,Prince of Wales-Hyder Census Area,55.475526,-133.1372,N,N,0,N,N,N,N,0200,02035,0200R,2017-2018,43,0,1,43
0200100,Delta-Greely School District,02,1664 N Clearwater,Delta Junction,AK,99737,02,02240,Southeast Fairbanks Census Area,64.043075,-145.711185,N,N,0,N,N,N,N,0200,02009,0200E,2017-2018,43,0,1,43
0200120,Dillingham City School District,02,565 Seward St,Dillingham,AK,99576,02,02070,Dillingham Census Area,59.043634,-158.466969,N,N,0,N,N,N,N,0200,02037,0200S,2017-2018,43,0,1,43
0200130,Galena City School District,02,299 Antoski Ave,Galena,AK,99741,02,02290,Yukon-Koyukuk Census Area,64.746135,-156.878509,N,N,0,N,N,N,N,0200,02039,0200T,2017-2018,23,7.29,2,"23, 43"
0200150,Ketchikan Gateway Borough School District,02,2610 Fourth Ave,Ketchikan,AK,99901,02,02130,Ketchikan Gateway Borough,55.3527,-131.6774,28540,"Ketchikan, AK",2,N,N,N,N,0200,02036,0200R,2017-2018,33,25.43,2,"33, 41"
0200180,Anchorage School District,02,5530 E Northern Lights Blvd,Anchorage,AK,99504,02,02020,Anchorage Municipality,61.193958,-149.775759,11260,"Anchorage, AK",1,N,N,N,N,0200,02016,0200H,2017-2018,11,18.12,4,"11, 31, 41, 42"
0200210,Juneau Borough School District,02,1208 Glacier Ave,Juneau,AK,99801,02,02110,Juneau City and Borough,58.302824,-134.423582,27940,"Juneau, AK",2,N,N,N,N,0200,02033,0200Q,2017-2018,33,19.39,2,"33, 41"
0200240,Sitka School District,02,300 Kostrometinoff St,Sitka,AK,99835,02,02220,Sitka City and Borough,57.064527,-135.351166,N,N,0,N,N,N,N,0200,02035,0200R,2017-2018,33,26.71,2,"33, 41"
0200270,Haines Borough School District,02,604 Haines Hwy,Haines,AK,99827,02,02100,Haines Borough,59.234574,-135.453573,N,N,0,N,N,N,N,0200,02033,0200Q,2017-2018,43,0,1,43
0200300,Hoonah City School District,02,366 Garteeni Hwy,Hoonah,AK,99829,02,02105,Hoonah-Angoon Census Area,58.108798,-135.442182,N,N,0,N,N,N,N,0200,02035,0200R,2017-2018,43,0,1,43
0200330,Hydaburg City School District,02,100 Totem Pole Ln,Hydaburg,AK,99922,02,02198,Prince of Wales-Hyder Census Area,55.207534,-132.82617,N,N,0,N,N,N,N,0200,02036,0200R,2017-2018,43,0,1,43
0200360,Kake City School District,02,175 Library Place,Kake,AK,99830,02,02198,Prince of Wales-Hyder Census Area,56.977702,-133.947065,N,N,0,N,N,N,N,0200,02035,0200R,2017-2018,43,0,1,43
0200390,Kenai Peninsula Borough School District,02,148 N Binkley St,Soldotna,AK,99669,02,02122,Kenai Peninsula Borough,60.49,-151.0723,N,N,0,N,N,N,N,0200,02030,0200O,2017-2018,43,63.34,4,"33, 41, 42, 43"
0200450,Klawock City School District,02,715 Bayview Blvd,Klawock,AK,99925,02,02198,Prince of Wales-Hyder Census Area,55.553553,-133.099033,N,N,0,N,N,N,N,0200,02035,0200R,2017-2018,43,0,1,43
0200480,Kodiak Island Borough School District,02,722 Mill Bay Rd,Kodiak,AK,99615,02,02150,Kodiak Island Borough,57.794069,-152.395226,N,N,0,N,N,N,N,0200,02032,0200P,2017-2018,33,23.57,4,"33, 41, 42, 43"
0200485,Lake and Peninsula Borough School District,02,101 Jensen Dr,King Salmon,AK,99613,02,02060,Bristol Bay Borough,58.701946,-156.666093,N,N,0,N,N,N,N,0200,02037,0200S,2017-2018,43,0,1,43
0200510,Matanuska-Susitna Borough School District,02,501 N Gulkana St,Palmer,AK,99645,02,02170,Matanuska-Susitna Borough,61.611321,-149.097358,11260,"Anchorage, AK",1,N,N,N,N,0200,02011,0200F,2017-2018,32,29.43,4,"32, 41, 42, 43"
0200520,Iditarod Area School District,02,#1 Takotna Ave,McGrath,AK,99627,02,02290,Yukon-Koyukuk Census Area,62.954338,-155.595756,N,N,0,N,N,N,N,0200,02037,0200S,2017-2018,43,41.88,2,"41, 43"
0200525,Annette Island School District,02,4th & Milton St,Metlakatla,AK,99926,02,02198,Prince of Wales-Hyder Census Area,55.126236,-131.577064,N,N,0,N,N,N,N,0200,02036,0200R,2017-2018,43,0,1,43
0200540,Nenana City School District,02,406 E 2nd St,Nenana,AK,99760,02,02290,Yukon-Koyukuk Census Area,64.562146,-149.088952,N,N,0,N,N,N,N,0200,02006,0200C,2017-2018,43,0,1,43
0200570,Nome Public Schools,02,Mile 3.5 Nome-Teller Hwy,Nome,AK,99762,02,02180,Nome Census Area,64.542453,-165.40547,N,N,0,N,N,N,N,0200,02039,0200T,2017-2018,33,43.88,2,"33, 41"
0200600,Fairbanks North Star Borough School District,02,520 Fifth Ave,Fairbanks,AK,99701,02,02090,Fairbanks North Star Borough,64.842168,-147.718047,21820,"Fairbanks, AK",1,N,N,N,N,0200,02001,0200A,2017-2018,13,55.15,5,"13, 23, 31, 41, 42"
0200610,North Slope Borough School District,02,829 Aivik St,Barrow,AK,99723,02,02185,North Slope Borough,71.291244,-156.788489,N,N,0,N,N,N,N,0200,02040,0200T,2017-2018,43,56.32,3,"33, 41, 43"
0200625,Northwest Arctic Borough School District,02,744 Third Ave,Kotzebue,AK,99752,02,02188,Northwest Arctic Borough,66.902041,-162.585829,N,N,0,N,N,N,N,0200,02040,0200T,2017-2018,43,35.77,2,"33, 43"
0200630,Pelican City School District,02,14 Chum Way,Pelican,AK,99832,02,02105,Hoonah-Angoon Census Area,57.956709,-136.222208,N,N,0,N,N,N,N,0200,02035,0200R,2017-2018,43,0,1,43
0200660,Petersburg Borough School District,02,201 Charles W St,Petersburg,AK,99833,02,02195,Petersburg Borough,56.814831,-132.954464,N,N,0,N,N,N,N,0200,02035,0200R,2017-2018,43,0,1,43
0200670,Pribilof School District,02,930 Tolstoi Blvd,St. Paul Island,AK,99660,02,02016,Aleutians West Census Area,57.125898,-170.283094,N,N,0,N,N,N,N,0200,02037,0200S,2017-2018,43,0,1,43
0200680,Saint Mary's School District,02,1 Dixon Circle,Saint Mary's,AK,99658,02,02158,Kusilvak Census Area,62.052226,-163.180707,N,N,0,N,N,N,N,0200,02039,0200T,2017-2018,43,0,1,43
0200690,Skagway School District,02,1563 Main St,Skagway,AK,99840,02,02230,Skagway Municipality,59.463181,-135.307408,N,N,0,N,N,N,N,0200,02033,0200Q,2017-2018,43,0,1,43
0200700,Southeast Island School District,02,1010 Sandy Beach Rd,Thorne Bay,AK,99919,02,02198,Prince of Wales-Hyder Census Area,55.689263,-132.524451,N,N,0,N,N,N,N,0200,02035,0200R,2017-2018,43,0,1,43
0200710,Southwest Region School District,02,574 Kenny Wren Rd,Dillingham,AK,99576,02,02070,Dillingham Census Area,59.042636,-158.468518,N,N,0,N,N,N,N,0200,02037,0200S,2017-2018,43,0,1,43
0200715,Tanana City School District,02,89 Front St,Tanana,AK,99777,02,02290,Yukon-Koyukuk Census Area,65.171308,-152.087844,N,N,0,N,N,N,N,0200,02006,0200C,2017-2018,43,0,1,43
0200720,Unalaska City School District,02,55 E Broadway St,Unalaska,AK,99685,02,02016,Aleutians West Census Area,53.872671,-166.529624,N,N,0,N,N,N,N,0200,02037,0200S,2017-2018,43,0,1,43
0200730,Chatham School District,02,500 Big Dog Salmon Way,Angoon,AK,99820,02,02105,Hoonah-Angoon Census Area,57.497734,-134.584631,N,N,0,N,N,N,N,0200,02035,0200R,2017-2018,43,0,1,43
0200760,Kuspuk School District,02,100 Boundary Ave,Aniak,AK,99557,02,02050,Bethel Census Area,61.582025,-159.538328,N,N,0,N,N,N,N,0200,02038,0200S,2017-2018,43,0,1,43
0200770,Denali Borough School District,02,1 Suntrana St,Healy,AK,99743,02,02068,Denali Borough,63.873423,-149.014066,N,N,0,N,N,N,N,0200,02006,0200C,2017-2018,43,0,1,43
0200775,Yukon Flats School District,02,123 Hill St,Ft. Yukon,AK,99740,02,02290,Yukon-Koyukuk Census Area,66.564156,-145.255084,N,N,0,N,N,N,N,0200,02006,0200C,2017-2018,43,0,1,43
0200780,Valdez City School District,02,1112 W Klutina,Valdez,AK,99686,02,02261,Valdez-Cordova Census Area,61.133181,-146.375642,N,N,0,N,N,N,N,0200,02009,0200E,2017-2018,43,0,1,43
0200800,Chugach School District,02,9312 Vanguard Dr Ste 100,Anchorage,AK,99507,02,02020,Anchorage Municipality,61.1364,-149.848232,11260,"Anchorage, AK",1,N,N,N,N,0200,02026,0200M,2017-2018,11,15.32,2,"11, 43"
0200810,Wrangell Public School District,02,350 Bennett St,Wrangell,AK,99929,02,02275,Wrangell City and Borough,56.47256,-132.374653,N,N,0,N,N,N,N,0200,02036,0200R,2017-2018,43,0,1,43
0200840,Yakutat School District,02,429 Forest Hwy,Yakutat,AK,99689,02,02282,Yakutat City and Borough,59.546637,-139.723329,N,N,0,N,N,N,N,0200,02032,0200P,2017-2018,43,0,1,43
0200862,Yukon-Koyukuk School District,02,4762 Old Airport Way,Fairbanks,AK,99709,02,02090,Fairbanks North Star Borough,64.83593,-147.826946,21820,"Fairbanks, AK",1,N,N,N,N,0200,02005,0200C,2017-2018,23,17.3,2,"23, 43"
0400001,Cave Creek Unified District,04,33016 N 60th Street,Scottsdale,AZ,85266,04,04013,Maricopa County,33.78835,-111.956391,38060,"Phoenix-Mesa-Scottsdale, AZ",1,N,N,N,N,0406,04023,04023,2017-2018,12,50.54,3,"11, 12, 41"
0400003,Chino Valley Unified District,04,650 East Center Street,Chino Valley,AZ,86323,04,04025,Yavapai County,34.7464,-112.453771,39140,"Prescott, AZ",1,N,N,N,N,0404,04001,04001,2017-2018,31,0,1,31
0400004,Clarkdale-Jerome Elementary District,04,1615 Main St,Clarkdale,AZ,86324,04,04025,Yavapai County,34.767043,-112.067391,39140,"Prescott, AZ",1,N,N,N,N,0404,04006,04006,2017-2018,32,0,1,32
0400005,Salome Consolidated Elementary District,04,38128 Saguaro & Main,Salome,AZ,85348,04,04012,La Paz County,33.781927,-113.619871,N,N,0,N,N,N,N,0404,04005,04005,2017-2018,43,0,1,43
0400016,Center for Academic Success  Inc.,04,900 Carmelita Drive,Sierra Vista,AZ,85635,04,04003,Cochise County,31.55762,-110.290171,43420,"Sierra Vista-Douglas, AZ",1,N,N,N,N,0402,04014,04014,2017-2018,33,44.58,2,"13, 33"
0400018,Pine Forest Education Association  Inc.,04,1120 West Kaibab Lane,Flagstaff,AZ,86001,04,04005,Coconino County,35.191784,-111.666654,22380,"Flagstaff, AZ",1,N,N,N,N,0401,04006,04006,2017-2018,13,0,1,13
0400019,Flagstaff Arts And Leadership Academy,04,3401 N Fort Valley Road,Flagstaff,AZ,86001,04,04005,Coconino County,35.238057,-111.66878,22380,"Flagstaff, AZ",1,N,N,N,N,0401,04006,04006,2017-2018,13,0,1,13
0400020,Flagstaff Montessori  L.L.C.,04,850 N. Locust St,Flagstaff,AZ,86001,04,04005,Coconino County,35.200466,-111.631429,22380,"Flagstaff, AZ",1,N,N,N,N,0401,04006,04006,2017-2018,13,0,1,13
0400021,Colorado City Unified District,04,325 North Cottonwood St,Colorado City,AZ,86021,04,04015,Mohave County,36.996523,-113.004242,29420,"Lake Havasu City-Kingman, AZ",1,332,"Las Vegas-Henderson, NV-AZ",N,N,0404,04005,04005,2017-2018,32,42.57,2,"32, 41"
0400022,Vernon Elementary District,04,90 CRN 3139,Vernon,AZ,85940,04,04001,Apache County,34.253504,-109.692177,N,N,0,N,N,N,N,0401,04007,04007,2017-2018,43,0,1,43
0400023,Pinon Unified District,04,Navajo Hwy 41,Pinon,AZ,86510,04,04017,Navajo County,36.112139,-110.216233,43320,"Show Low, AZ",2,N,N,N,N,0401,04007,04007,2017-2018,43,0,1,43
0400026,Heber-Overgaard Unified District,04,3375 Buckskin Canyon Rd,Heber,AZ,85928,04,04017,Navajo County,34.426548,-110.59637,43320,"Show Low, AZ",2,N,N,N,N,0401,04006,04006,2017-2018,43,0,1,43
0400028,Triumphant Learning Center,04,201 E. Main St.,Safford,AZ,85546,04,04009,Graham County,32.83311,-109.7052,40940,"Safford, AZ",2,N,N,N,N,0401,04014,04014,2017-2018,33,0,1,33
0400031,Ridgeline Academy  Inc.,04,33625 N. North Valley Parkway,Phoenix,AZ,85085,04,04013,Maricopa County,33.79011,-112.120611,38060,"Phoenix-Mesa-Scottsdale, AZ",1,N,N,N,N,0408,04001,04001,2017-2018,11,0,1,11
0400033,Boys & Girls Clubs of the East Valley dba Mesa Arts Academy,04,221 West Sixth Avenue,Mesa,AZ,85210,04,04013,Maricopa County,33.403716,-111.836169,38060,"Phoenix-Mesa-Scottsdale, AZ",1,N,N,N,N,0409,04026,04026,2017-2018,11,0,1,11
0400034,Reid Traditional Schools' Valley Academy  Inc.,04,14841 N. Black Canyon Highway,Phoenix,AZ,85023,04,04013,Maricopa County,33.6207,-112.115121,38060,"Phoenix-Mesa-Scottsdale, AZ",1,N,N,N,N,0406,04020,04020,2017-2018,11,0,1,11
0400036,Foothills Academy,04,7191 E. Ashler Hills Drive,Scottsdale,AZ,85266,04,04013,Maricopa County,33.77701,-111.926561,38060,"Phoenix-Mesa-Scottsdale, AZ",1,N,N,N,N,0406,04023,04023,2017-2018,12,0,1,12
0400037,Twenty First Century Charter School  Inc. Bennett Academy,04,2930 W. Bethany Home Road,Phoenix,AZ,85017,04,04013,Maricopa County,33.524779,-112.122939,38060,"Phoenix-Mesa-Scottsdale, AZ",1,N,N,N,N,0407,04030,04030,2017-2018,11,0,1,11
0400040,STEP UP Schools  Inc.,04,44 East 5th Street,Mesa,AZ,85201,04,04013,Maricopa County,33.424138,-111.830049,38060,"Phoenix-Mesa-Scottsdale, AZ",1,N,N,N,N,0409,04025,04025,2017-2018,11,0,1,11
0400041,Maricopa County Community College District dba Gateway Early,04,108 North 40th Street,Phoenix,AZ,85034,04,04013,Maricopa County,33.44933,-111.997097,38060,"Phoenix-Mesa-Scottsdale, AZ",1,N,N,N,N,0407,04027,04027,2017-2018,11,0,1,11
0400043,New School For The Arts,04,1216 East Apache Boulevard,Tempe,AZ,85281,04,04013,Maricopa County,33.415439,-111.919058,38060,"Phoenix-Mesa-Scottsdale, AZ",1,N,N,N,N,0409,04026,04026,2017-2018,12,0,1,12
0400047,Salt River Pima-Maricopa  Community Schools,04,4827 N Country Club Drive,Scottsdale,AZ,85256,04,04013,Maricopa County,33.506913,-111.838363,38060,"Phoenix-Mesa-Scottsdale, AZ",1,N,N,N,N,0406,04026,04026,2017-2018,41,0,1,41
0400052,Espiritu Community Development Corp. 1,04,4848 South 2nd Street,Phoenix,AZ,85040,04,04013,Maricopa County,33.401922,-112.071451,38060,"Phoenix-Mesa-Scottsdale, AZ",1,N,N,N,N,0407,04027,04027,2017-2018,11,0,1,11
0400053,Heritage Academy  Inc.,04,32 South Center,Mesa,AZ,85210,04,04013,Maricopa County,33.41415,-111.8321,38060,"Phoenix-Mesa-Scottsdale, AZ",1,N,N,N,N,0409,04026,04026,2017-2018,11,0.15,2,"11, 41"
0400054,Villa Montessori Charter School,04,2802 E. Meadowbrook Ave,Phoenix,AZ,85016,04,04013,Maricopa County,33.50464,-112.020421,38060,"Phoenix-Mesa-Scottsdale, AZ",1,N,N,N,N,0409,04028,04028,2017-2018,11,0,1,11
0400055,EduPreneurship  Inc.,04,2632 W. Augusta Ave.,Phoenix,AZ,85051,04,04013,Maricopa County,33.544468,-112.117626,38060,"Phoenix-Mesa-Scottsdale, AZ",1,N,N,N,N,0406,04030,04030,2017-2018,11,0,1,11
0400056,Arizona School For The Arts,04,1410 N Third Street,Phoenix,AZ,85004,04,04013,Maricopa County,33.4645,-112.0694,38060,"Phoenix-Mesa-Scottsdale, AZ",1,N,N,N,N,0407,04024,04024,2017-2018,11,0,1,11
0400057,Arizona Call-a-Teen Youth Resources  Inc.,04,649 N 6th Ave,Phoenix,AZ,85003,04,04013,Maricopa County,33.456438,-112.081162,38060,"Phoenix-Mesa-Scottsdale, AZ",1,N,N,N,N,0407,04024,04024,2017-2018,11,0,1,11
0400061,Intelli-School  Inc.,04,2222 W. Northern Ave.,Phoenix,AZ,85021,04,04013,Maricopa County,33.5531,-112.1068,38060,"Phoenix-Mesa-Scottsdale, AZ",1,N,N,N,N,0409,04030,04030,2017-2018,11,0,1,11
0400065,Benjamin Franklin Charter School,04,690 E. Warner Rd.,Gilbert,AZ,85296,04,04013,Maricopa County,33.33635,-111.775871,38060,"Phoenix-Mesa-Scottsdale, AZ",1,N,N,N,N,0405,04012,04012,2017-2018,21,24.66,2,"21, 41"
0400067,Victory High School  Inc.,04,1650 West Southern Avenue,Phoenix,AZ,85041,04,04013,Maricopa County,33.392756,-112.094493,38060,"Phoenix-Mesa-Scottsdale, AZ",1,N,N,N,N,0407,04027,04027,2017-2018,11,0,1,11
0400068,Montessori Day Public Schools Chartered  Inc.,04,9201 North 7th Avenue,Phoenix,AZ,85021,04,04013,Maricopa County,33.57,-112.0825,38060,"Phoenix-Mesa-Scottsdale, AZ",1,N,N,N,N,0409,04028,04028,2017-2018,11,36.39,2,"11, 21"
0400069,Khalsa Montessori Elementary Schools,04,2536 North 3rd Street,Phoenix,AZ,85004,04,04013,Maricopa County,33.475943,-112.069649,38060,"Phoenix-Mesa-Scottsdale, AZ",1,N,N,N,N,0407,04024,04024,2017-2018,11,0,1,11
0400070,Tempe Preparatory Academy,04,1251 E. Southern Ave.,Tempe,AZ,85282,04,04013,Maricopa County,33.39237,-111.918811,38060,"Phoenix-Mesa-Scottsdale, AZ",1,N,N,N,N,0409,04026,04026,2017-2018,12,0,1,12
0400071,Bright Beginnings School  Inc.,04,400 N. Andersen Blvd.,Chandler,AZ,85224,04,04013,Maricopa County,33.308508,-111.874099,38060,"Phoenix-Mesa-Scottsdale, AZ",1,N,N,N,N,0409,04017,04017,2017-2018,21,0,1,21
0400072,Montessori Education Centre Charter School,04,2834 East Southern Ave,Mesa,AZ,85204,04,04013,Maricopa County,33.393979,-111.769652,38060,"Phoenix-Mesa-Scottsdale, AZ",1,N,N,N,N,0405,04025,04025,2017-2018,11,0,1,11
0400074,Kingman Academy Of Learning,04,3410 N. Burbank St.,Kingman,AZ,86409,04,04015,Mohave County,35.2228,-114.028561,29420,"Lake Havasu City-Kingman, AZ",1,332,"Las Vegas-Henderson, NV-AZ",N,N,0404,04005,04005,2017-2018,33,0,1,33
0400075,Young Scholars Academy Charter School Corp.,04,1501 East Valencia Rd.,Bullhead City,AZ,86426,04,04015,Mohave County,35.033769,-114.595663,29420,"Lake Havasu City-Kingman, AZ",1,332,"Las Vegas-Henderson, NV-AZ",N,N,0404,04005,04005,2017-2018,33,0,1,33
0400077,Career Development  Inc.,04,1300 N Centennial Blvd,Taylor,AZ,85939,04,04017,Navajo County,34.4809,-110.0974,43320,"Show Low, AZ",2,N,N,N,N,0401,04006,04006,2017-2018,41,0,1,41
0400078,Edge School  Inc.  The,04,2555 E First Street,Tucson,AZ,85716,04,04019,Pima County,32.235036,-110.934282,46060,"Tucson, AZ",1,536,"Tucson-Nogales, AZ",N,N,0402,04010,04010,2017-2018,11,25.96,2,"11, 21"
0400079,Tucson Youth Development/ACE Charter High School,04,1901 North Stone Ave.,Tucson,AZ,85705,04,04019,Pima County,32.2453,-110.9719,46060,"Tucson, AZ",1,536,"Tucson-Nogales, AZ",N,N,0403,04003,04003,2017-2018,11,0,1,11
0400081,Presidio School,04,1695 E. Fort Lowell Road,Tucson,AZ,85719,04,04019,Pima County,32.265323,-110.946866,46060,"Tucson, AZ",1,536,"Tucson-Nogales, AZ",N,N,0402,04009,04009,2017-2018,11,0,1,11
0400082,Colorado River Union High School District,04,1004 Hancock Rd,Bullhead City,AZ,86426,04,04015,Mohave County,35.107331,-114.610943,29420,"Lake Havasu City-Kingman, AZ",1,332,"Las Vegas-Henderson, NV-AZ",N,N,0404,04005,04005,2017-2018,33,28.56,2,"32, 33"
0400083,Portable Practical Educational Preparation Inc. (PPEP In 1,04,1840 E. Benson Hwy,Tucson,AZ,85714,04,04019,Pima County,32.167903,-110.943742,46060,"Tucson, AZ",1,536,"Tucson-Nogales, AZ",N,N,0403,04002,04002,2017-2018,33,79.18,6,"11, 13, 23, 31, 32, 33"
0400089,Sedona Charter School  Inc.,04,165 Kachina Drive,Sedona,AZ,86336,04,04025,Yavapai County,34.8659,-111.82,39140,"Prescott, AZ",1,N,N,N,N,0401,04006,04006,2017-2018,41,0,1,41
0400090,Mingus Springs Charter School,04,3600 North Sunset Drive,Chino Valley,AZ,86323,04,04025,Yavapai County,34.788398,-112.494417,39140,"Prescott, AZ",1,N,N,N,N,0404,04001,04001,2017-2018,31,0,1,31
0400092,Franklin Phonetic Primary School Inc. 1,04,6116 East Highway 69,Prescott Valley,AZ,86314,04,04025,Yavapai County,34.58119,-112.357264,39140,"Prescott, AZ",1,N,N,N,N,0404,04001,04001,2017-2018,23,0,1,23
0400093,Skyview School  Inc.,04,125 South Rush Street,Prescott,AZ,86303,04,04025,Yavapai County,34.541345,-112.456293,39140,"Prescott, AZ",1,N,N,N,N,0404,04001,04001,2017-2018,13,0,1,13
0400094,Az-Tec High School,04,2330 West 28th Street,Yuma,AZ,85364,04,04027,Yuma County,32.677818,-114.646946,49740,"Yuma, AZ",1,N,N,N,N,0403,04013,04013,2017-2018,13,0,1,13
0400095,Yuma Private Industry Council  Inc.,04,3834 W. 16th St.,Yuma,AZ,85364,04,04027,Yuma County,32.699216,-114.669045,49740,"Yuma, AZ",1,N,N,N,N,0403,04004,04004,2017-2018,13,0,1,13
0400096,Mountain School  Inc.,04,311 W. Cattle Drive Trail,Flagstaff,AZ,86001,04,04005,Coconino County,35.162569,-111.669209,22380,"Flagstaff, AZ",1,N,N,N,N,0401,04006,04006,2017-2018,13,0,1,13
0400097,Northland Preparatory Academy,04,3300 East Sparrow,Flagstaff,AZ,86004,04,04005,Coconino County,35.1989,-111.6059,22380,"Flagstaff, AZ",1,N,N,N,N,0401,04006,04006,2017-2018,13,0,1,13
0400098,Flagstaff Junior Academy,04,306 W. Cedar Avenue,Flagstaff,AZ,86001,04,04005,Coconino County,35.212701,-111.645438,22380,"Flagstaff, AZ",1,N,N,N,N,0401,04006,04006,2017-2018,13,0,1,13
0400099,Liberty High School,04,1300 East Cedar,Globe,AZ,85501,04,04007,Gila County,33.401231,-110.775802,37740,"Payson, AZ",2,N,N,N,N,0401,04008,04008,2017-2018,33,0,1,33
0400100,Ball Charter Schools (Hearn),04,17606 N. 7th Ave.,Phoenix,AZ,85023,04,04013,Maricopa County,33.644943,-112.083244,38060,"Phoenix-Mesa-Scottsdale, AZ",1,N,N,N,N,0406,04020,04020,2017-2018,11,0,1,11
0400102,Friendly House  Inc.,04,802 S. First Avenue,Phoenix,AZ,85003,04,04013,Maricopa County,33.4397,-112.0751,38060,"Phoenix-Mesa-Scottsdale, AZ",1,N,N,N,N,0407,04027,04027,2017-2018,11,0,1,11
0400103,Ombudsman Educational Services Ltd. a subsidiary of Educ 1,04,13832 N. 32nd Street,Phoenix,AZ,85018,04,04013,Maricopa County,33.6129,-112.0133,38060,"Phoenix-Mesa-Scottsdale, AZ",1,N,N,N,N,0406,04028,04028,2017-2018,11,37.41,3,"11, 12, 21"
0400104,Global Renaissance Academy of Distinguished Education,04,7541 South Willow Drive,Tempe,AZ,85283,04,04013,Maricopa County,33.350741,-111.914317,38060,"Phoenix-Mesa-Scottsdale, AZ",1,N,N,N,N,0409,04018,04018,2017-2018,12,0,1,12
0400105,Hillcrest Academy  Inc.,04,4710 East Baseline Road,Mesa,AZ,85206,04,04013,Maricopa County,33.38009,-111.732316,38060,"Phoenix-Mesa-Scottsdale, AZ",1,N,N,N,N,0405,04025,04025,2017-2018,11,0,1,11
0400106,Arizona Agribusiness & Equine Center Inc. 1,04,3775 E Union Hills Dr,Phoenix,AZ,85032,04,04013,Maricopa County,33.490494,-112.074425,38060,"Phoenix-Mesa-Scottsdale, AZ",1,N,N,N,N,0407,04024,04024,2017-2018,11,0,1,11
0400107,International Commerce Secondary Schools  Inc.,04,5201 North 7th Street,Phoenix,AZ,85014,04,04013,Maricopa County,33.513239,-112.064352,38060,"Phoenix-Mesa-Scottsdale, AZ",1,N,N,N,N,0409,04024,04024,2017-2018,11,0,1,11
0400108,Humanities and Sciences Academy of the United States  Inc.,04,5201 N. 7th Street,Phoenix,AZ,85014,04,04013,Maricopa County,33.5134,-112.065,38060,"Phoenix-Mesa-Scottsdale, AZ",1,N,N,N,N,0409,04024,04024,2017-2018,12,0,1,12
0400109,Phoenix Advantage Charter School  Inc.,04,3738 N. 16th Street,Phoenix,AZ,85016,04,04013,Maricopa County,33.491463,-112.048708,38060,"Phoenix-Mesa-Scottsdale, AZ",1,N,N,N,N,0409,04024,04024,2017-2018,11,0,1,11
0400111,Allen-Cochran Enterprises  Inc.,04,1700 East Elliot,Tempe,AZ,85284,04,04013,Maricopa County,33.3492,-111.9133,38060,"Phoenix-Mesa-Scottsdale, AZ",1,N,N,N,N,0409,04018,04018,2017-2018,12,0,1,12
0400112,American Leadership Academy  Inc.,04,19935 E Chandler Heights Rd,Queen Creek,AZ,85142,04,04013,Maricopa County,33.233478,-111.653033,38060,"Phoenix-Mesa-Scottsdale, AZ",1,N,N,N,N,0405,04012,04012,2017-2018,21,38.19,3,"11, 21, 41"
0400113,Fountain Hills Charter School,04,15055 N. Fountain Hills Boulev,Fountain Hills,AZ,85268,04,04013,Maricopa County,33.623857,-111.718278,38060,"Phoenix-Mesa-Scottsdale, AZ",1,N,N,N,N,0406,04023,04023,2017-2018,21,0,1,21
0400115,Hermosa Montessori Charter School,04,12051 E Fort Lowell,Tucson,AZ,85749,04,04019,Pima County,32.266606,-110.734859,46060,"Tucson, AZ",1,536,"Tucson-Nogales, AZ",N,N,0402,04010,04010,2017-2018,41,0,1,41
0400120,Arizona Department of Corrections,04,1601 W. Jefferson,Phoenix,AZ,85007,04,04013,Maricopa County,33.447,-112.0938,38060,"Phoenix-Mesa-Scottsdale, AZ",1,N,N,N,N,0407,04027,04027,2017-2018,11,63.89,6,"11, 22, 31, 33, 41, 42"
0400121,Accelerated Learning Center  Inc.,04,4105 E. Shea Blvd,Phoenix,AZ,85028,04,04013,Maricopa County,33.582212,-111.992879,38060,"Phoenix-Mesa-Scottsdale, AZ",1,N,N,N,N,0406,04028,04028,2017-2018,11,0,1,11
0400122,Acclaim Charter School,04,7624 W. Indian School Rd.,Phoenix,AZ,85033,04,04013,Maricopa County,33.495776,-112.224385,38060,"Phoenix-Mesa-Scottsdale, AZ",1,N,N,N,N,0407,04029,04029,2017-2018,11,0,1,11
0400124,Genesis Program  Inc.,04,525 E McDowell Rd,Phoenix,AZ,85004,04,04013,Maricopa County,33.465396,-112.066142,38060,"Phoenix-Mesa-Scottsdale, AZ",1,N,N,N,N,0407,04024,04024,2017-2018,11,0,1,11
0400125,Luz Academy of Tucson  Inc,04,25 East Drachman Street,Tucson,AZ,85705,04,04019,Pima County,32.23973,-110.970982,46060,"Tucson, AZ",1,536,"Tucson-Nogales, AZ",N,N,0403,04003,04003,2017-2018,11,0,1,11
0400126,Montessori Schoolhouse of Tucson  Inc.,04,1301 E. Fort Lowell Road,Tucson,AZ,85719,04,04019,Pima County,32.265106,-110.952086,46060,"Tucson, AZ",1,536,"Tucson-Nogales, AZ",N,N,0402,04009,04009,2017-2018,11,0,1,11
0400128,Academy Of Excellence  Inc.,04,425 N 36th Street,Phoenix,AZ,85008,04,04013,Maricopa County,33.453416,-112.003652,38060,"Phoenix-Mesa-Scottsdale, AZ",1,N,N,N,N,0407,04027,04027,2017-2018,11,0,1,11
0400129,Accelerated Elementary and Secondary Schools,04,5245 N. Camino de Oeste,Tucson,AZ,85745,04,04019,Pima County,32.30313,-111.063,46060,"Tucson, AZ",1,536,"Tucson-Nogales, AZ",N,N,0403,04011,04011,2017-2018,41,0,1,41
0400130,American Heritage Academy,04,2030 E. Cherry St.,Cottonwood,AZ,86326,04,04025,Yavapai County,34.732399,-112.004473,39140,"Prescott, AZ",1,N,N,N,N,0404,04006,04006,2017-2018,32,0,1,32
0400131,The Charter Foundation  Inc.,04,5383 E. Rockridge Road,Phoenix,AZ,85018,04,04013,Maricopa County,33.5065,-111.9646,38060,"Phoenix-Mesa-Scottsdale, AZ",1,N,N,N,N,0409,04028,04028,2017-2018,11,48.88,2,"11, 13"
0400133,Employ-Ability Unlimited  Inc.,04,7785 W. Peoria Ave.,Peoria,AZ,85345,04,04013,Maricopa County,33.580663,-112.226933,38060,"Phoenix-Mesa-Scottsdale, AZ",1,N,N,N,N,0408,04021,04021,2017-2018,21,0,1,21
0400134,BASIS School Inc. 1,04,7975 N. Hayden Rd,Scottsdale,AZ,85258,04,04013,Maricopa County,33.55305,-111.897531,38060,"Phoenix-Mesa-Scottsdale, AZ",1,N,N,N,N,0406,04023,04023,2017-2018,11,0,1,11
0400135,Challenge School  Inc.,04,5801 W. Greenbriar Dr.,Glendale,AZ,85308,04,04013,Maricopa County,33.643183,-112.185551,38060,"Phoenix-Mesa-Scottsdale, AZ",1,N,N,N,N,0408,04022,04022,2017-2018,21,0,1,21
0400141,Discovery Plus Academy,04,852 West 250 North,Pima,AZ,85543,04,04009,Graham County,32.901398,-109.844985,40940,"Safford, AZ",2,N,N,N,N,0401,04014,04014,2017-2018,41,0,1,41
0400144,Florence Crittenton Services of Arizona  Inc.,04,715 West Mariposa Street,Phoenix,AZ,85013,04,04013,Maricopa County,33.507299,-112.08305,38060,"Phoenix-Mesa-Scottsdale, AZ",1,N,N,N,N,0407,04024,04024,2017-2018,11,0,1,11
0400145,Gem Charter School  Inc.,04,1704 North Center Street,Mesa,AZ,85201,04,04013,Maricopa County,33.446189,-111.831648,38060,"Phoenix-Mesa-Scottsdale, AZ",1,N,N,N,N,0409,04025,04025,2017-2018,11,0,1,11
0400147,Ha:san Educational Services,04,1333 East 10th Street,Tucson,AZ,85719,04,04019,Pima County,32.22257,-110.9516,46060,"Tucson, AZ",1,536,"Tucson-Nogales, AZ",N,N,0403,04003,04003,2017-2018,11,0,1,11
0400149,Kaizen Education Foundation dba El Dorado High School,04,7878 N. 16th St.,Phoenix,AZ,85020,04,04013,Maricopa County,33.5528,-112.048,38060,"Phoenix-Mesa-Scottsdale, AZ",1,N,N,N,N,0409,04028,04028,2017-2018,11,28.57,2,"11, 21"
0400150,Mexicayotl Academy  Inc.,04,850 N. Morley Ave,Nogales,AZ,85621,04,04023,Santa Cruz County,31.34831,-110.927471,35700,"Nogales, AZ",2,536,"Tucson-Nogales, AZ",N,N,0403,04002,04002,2017-2018,33,35.34,2,"11, 33"
0400151,New Horizon School for the Performing Arts,04,446 E. Broadway,Mesa,AZ,85204,04,04013,Maricopa County,33.408068,-111.821157,38060,"Phoenix-Mesa-Scottsdale, AZ",1,N,N,N,N,0409,04026,04026,2017-2018,11,0,1,11
0400153,Phoenix School of Academic Excellence The,04,5312 N. 12th Street,Phoenix,AZ,85014,04,04013,Maricopa County,33.51583,-112.055421,38060,"Phoenix-Mesa-Scottsdale, AZ",1,N,N,N,N,0409,04024,04024,2017-2018,11,0,1,11
0400154,Shonto Governing Board of Education  Inc.,04,East Highway 160/98,Shonto,AZ,86054,04,04017,Navajo County,36.600442,-110.656366,43320,"Show Low, AZ",2,N,N,N,N,0401,04007,04007,2017-2018,43,0,1,43
0400157,Edkey  Inc. - Sequoia Choice Schools,04,1460 South Horne,Mesa,AZ,85204,04,04013,Maricopa County,33.3874,-111.816391,38060,"Phoenix-Mesa-Scottsdale, AZ",1,N,N,N,N,0409,04026,04026,2017-2018,11,0,1,11
0400159,Tucson Preparatory School,04,104 E. Prince Rd.,Tucson,AZ,85705,04,04019,Pima County,32.272,-110.971,46060,"Tucson, AZ",1,536,"Tucson-Nogales, AZ",N,N,0402,04003,04003,2017-2018,11,0,1,11
0400160,Vision Charter School  Inc.,04,5901 South Calle Santa Cruz,Tucson,AZ,85709,04,04019,Pima County,32.146098,-110.990322,46060,"Tucson, AZ",1,536,"Tucson-Nogales, AZ",N,N,0403,04003,04003,2017-2018,11,0,1,11
0400163,Coconino County Accommodation School District,04,2384 N. Steves Blvd.,Flagstaff,AZ,86004,04,04005,Coconino County,35.209299,-111.604006,22380,"Flagstaff, AZ",1,N,N,N,N,0401,04006,04006,2017-2018,13,44.8,2,"13, 33"
0400164,Arizona Academy of Science And Technology  Inc.,04,2920 North 7th Street,Phoenix,AZ,85014,04,04013,Maricopa County,33.48084,-112.065561,38060,"Phoenix-Mesa-Scottsdale, AZ",1,N,N,N,N,0409,04024,04024,2017-2018,11,0,1,11
0400165,Keystone Montessori Charter School  Inc.,04,1025 E. Liberty Lane,Phoenix,AZ,85048,04,04013,Maricopa County,33.295654,-112.06055,38060,"Phoenix-Mesa-Scottsdale, AZ",1,N,N,N,N,0409,04018,04018,2017-2018,11,0,1,11
0400178,Greenlee Alternative School District,04,247 N Coronado,Clifton,AZ,85533,04,04011,Greenlee County,33.047368,-109.294171,N,N,0,N,N,N,N,0401,04014,04014,2017-2018,33,-2,-2,N
0400181,Benchmark School  Inc.,04,4120 E. Acoma Drive,Phoenix,AZ,85032,04,04013,Maricopa County,33.620224,-111.993073,38060,"Phoenix-Mesa-Scottsdale, AZ",1,N,N,N,N,0406,04015,04015,2017-2018,11,0,1,11
0400182,Cambridge Academy  East   Inc,04,9412 E. Brown Rd.,Mesa,AZ,85207,04,04013,Maricopa County,33.437406,-111.627646,38060,"Phoenix-Mesa-Scottsdale, AZ",1,N,N,N,N,0405,04016,04016,2017-2018,11,42.9,2,"11, 21"
0400184,Ball Charter Schools (Dobson),04,2207 N. Dobson Rd.,Chandler,AZ,85224,04,04013,Maricopa County,33.339426,-111.875183,38060,"Phoenix-Mesa-Scottsdale, AZ",1,N,N,N,N,0409,04017,04017,2017-2018,21,0,1,21
0400185,Phoenix Education Management  LLC,04,1903 East Roeser,Phoenix,AZ,85040,04,04013,Maricopa County,33.3996,-112.0402,38060,"Phoenix-Mesa-Scottsdale, AZ",1,N,N,N,N,0407,04027,04027,2017-2018,11,0,1,11
0400187,Stepping Stones Academy,04,35812 N. 7th Street,Phoenix,AZ,85086,04,04013,Maricopa County,33.809697,-112.066564,38060,"Phoenix-Mesa-Scottsdale, AZ",1,N,N,N,N,0408,04001,04001,2017-2018,21,0,1,21
0400189,East Valley Academy,04,1858 East Brown Road,Mesa,AZ,85203,04,04013,Maricopa County,33.437725,-111.790363,38060,"Phoenix-Mesa-Scottsdale, AZ",1,N,N,N,N,0405,04025,04025,2017-2018,11,0,1,11
0400190,Liberty Traditional Charter School,04,4027 N. 45th Ave.,Phoenix,AZ,85031,04,04013,Maricopa County,33.494558,-112.155637,38060,"Phoenix-Mesa-Scottsdale, AZ",1,N,N,N,N,0407,04029,04029,2017-2018,11,42.47,2,"11, 41"
0400191,Fit Kids  Inc. dba Champion Schools,04,7900 South Jesse Owens Parkway,Phoenix,AZ,85042,04,04013,Maricopa County,33.37523,-112.069841,38060,"Phoenix-Mesa-Scottsdale, AZ",1,N,N,N,N,0407,04027,04027,2017-2018,21,37.19,2,"11, 21"
0400192,Sonoran Desert School,04,6724 S Kings Ranch Road,Gold Canyon,AZ,85118,04,04021,Pinal County,33.35343,-111.457801,38060,"Phoenix-Mesa-Scottsdale, AZ",1,N,N,N,N,0404,04016,04016,2017-2018,21,0,1,21
0400197,Northern Arizona Vocational Institute of Technology,04,951 W. Snowflake Blvd.,Snowflake,AZ,85937,04,04017,Navajo County,34.51236,-110.09415,43320,"Show Low, AZ",2,N,N,N,N,0401,04006,04006,2017-2018,41,37.04,4,"33, 41, 42, 43"
0400201,Pima County,04,175 W. Irvington,Tucson,AZ,85714,04,04019,Pima County,32.162836,-110.970465,46060,"Tucson, AZ",1,536,"Tucson-Nogales, AZ",N,N,0403,04003,04003,2017-2018,11,0,1,11
0400202,Academy of Tucson  Inc.,04,10720 E. 22nd Street,Tucson,AZ,85748,04,04019,Pima County,32.2059,-110.763712,46060,"Tucson, AZ",1,536,"Tucson-Nogales, AZ",N,N,0402,04010,04010,2017-2018,11,0,1,11
0400204,Mountain Rose Academy  Inc.,04,3686 W.Orange Grove Rd.,Tucson,AZ,85741,04,04019,Pima County,32.3234,-111.0434,46060,"Tucson, AZ",1,536,"Tucson-Nogales, AZ",N,N,0401,04009,04009,2017-2018,21,0,1,21
0400205,Great Expectations Academy,04,1466 West Camino Antigua,Sahuarita,AZ,85629,04,04019,Pima County,31.929443,-110.996007,46060,"Tucson, AZ",1,536,"Tucson-Nogales, AZ",N,N,0402,04002,04002,2017-2018,32,0,1,32
0400206,Desert Springs Academy,04,3833 E. 2nd Street,Tucson,AZ,85716,04,04019,Pima County,32.23449,-110.910861,46060,"Tucson, AZ",1,536,"Tucson-Nogales, AZ",N,N,0402,04010,04010,2017-2018,41,0,1,41
0400208,Mountain Oak Charter School  Inc.,04,1455 Willow Creek rd,Prescott,AZ,86301,04,04025,Yavapai County,34.56894,-112.480901,39140,"Prescott, AZ",1,N,N,N,N,0404,04001,04001,2017-2018,13,0,1,13
0400209,Park View School  Inc.,04,9030 E. Florentine Road,Prescott Valley,AZ,86314,04,04025,Yavapai County,34.58562,-112.307481,39140,"Prescott, AZ",1,N,N,N,N,0404,04001,04001,2017-2018,41,44.16,2,"23, 41"
0400210,Painted Pony Ranch Charter School,04,2100 Willow Creek Road,Prescott,AZ,86301,04,04025,Yavapai County,34.578998,-112.483239,39140,"Prescott, AZ",1,N,N,N,N,0404,04001,04001,2017-2018,13,0,1,13
0400211,Mary Ellen Halvorson Educational Foundation. dba: Tri-City P,04,5522 Side Road,Prescott,AZ,86301,04,04025,Yavapai County,34.635725,-112.405558,39140,"Prescott, AZ",1,N,N,N,N,0404,04001,04001,2017-2018,41,0,1,41
0400212,Benson Unified School District,04,360 S. Patagonia Street,Benson,AZ,85602,04,04003,Cochise County,31.962974,-110.299649,43420,"Sierra Vista-Douglas, AZ",1,N,N,N,N,0402,04014,04014,2017-2018,32,0,1,32
0400213,Painted Desert Demonstration Projects  Inc.,04,145 Leupp Rd.,Flagstaff,AZ,86004,04,04005,Coconino County,35.30553,-111.297281,22380,"Flagstaff, AZ",1,N,N,N,N,0401,04007,04007,2017-2018,42,0,1,42
0400214,The Shelby School,04,249 Standage Drive,Payson,AZ,85541,04,04007,Gila County,34.3187,-111.1373,37740,"Payson, AZ",2,N,N,N,N,0404,04006,04006,2017-2018,42,0,1,42
0400217,Little Lamb Community School,04,12990 E. Shea Blvd.,Scottsdale,AZ,85259,04,04013,Maricopa County,33.583609,-111.800785,38060,"Phoenix-Mesa-Scottsdale, AZ",1,N,N,N,N,0406,04023,04023,2017-2018,12,0,1,12
0400218,American Basic Schools LLC,04,827 E. 6th Ave,Mesa,AZ,85204,04,04013,Maricopa County,33.4042,-111.8133,38060,"Phoenix-Mesa-Scottsdale, AZ",1,N,N,N,N,0409,04026,04026,2017-2018,11,0,1,11
0400219,Career Success Schools,04,16004 N. 36th Dr.,Phoenix,AZ,85053,04,04013,Maricopa County,33.6308,-112.1369,38060,"Phoenix-Mesa-Scottsdale, AZ",1,N,N,N,N,0406,04020,04020,2017-2018,11,0,1,11
0400221,Kaizen Education Foundation dba South Pointe Elementary Scho,04,7878 N. 16th St.,Phoenix,AZ,85020,04,04013,Maricopa County,33.55264,-112.049571,38060,"Phoenix-Mesa-Scottsdale, AZ",1,N,N,N,N,0409,04028,04028,2017-2018,11,0,1,11
0400223,Daisy Education Corporation dba Sonoran Science Academy,04,2325 W Sunset Rd,Tucson,AZ,85741,04,04019,Pima County,32.308354,-111.01681,46060,"Tucson, AZ",1,536,"Tucson-Nogales, AZ",N,N,0402,04009,04009,2017-2018,21,0,1,21
0400225,Horizon Community Learning Center Inc. 1,04,16233 S. 48th Street,Phoenix,AZ,85048,04,04013,Maricopa County,33.298601,-111.978154,38060,"Phoenix-Mesa-Scottsdale, AZ",1,N,N,N,N,0409,04018,04018,2017-2018,11,0,1,11
0400227,Kaizen Education Foundation dba South Pointe Junior High Sch,04,217 E. Olympic Drive,Phoenix,AZ,85042,04,04013,Maricopa County,33.37353,-112.071697,38060,"Phoenix-Mesa-Scottsdale, AZ",1,N,N,N,N,0407,04027,04027,2017-2018,11,0,1,11
0400229,Milestones Charter School,04,4707 E. Robert E. Lee Street,Phoenix,AZ,85032,04,04013,Maricopa County,33.65033,-111.97825,38060,"Phoenix-Mesa-Scottsdale, AZ",1,N,N,N,N,0406,04015,04015,2017-2018,11,0,1,11
0400230,Pathfinder Charter School Foundation,04,18052 N. Black Canyon Highway,Phoenix,AZ,85053,04,04013,Maricopa County,33.6513,-112.1152,38060,"Phoenix-Mesa-Scottsdale, AZ",1,N,N,N,N,0406,04020,04020,2017-2018,11,0,1,11
0400231,James Madison Preparatory School,04,5815 S. McClintock,Tempe,AZ,85283,04,04013,Maricopa County,33.370129,-111.91052,38060,"Phoenix-Mesa-Scottsdale, AZ",1,N,N,N,N,0409,04018,04018,2017-2018,12,0,1,12
0400232,Self Development Charter School,04,1709 N. Greenfield Rd.,Mesa,AZ,85205,04,04013,Maricopa County,33.4465,-111.7361,38060,"Phoenix-Mesa-Scottsdale, AZ",1,N,N,N,N,0405,04025,04025,2017-2018,11,0,1,11
0400235,Excalibur Charter Schools  Inc.,04,1045 South San Marcos,Apache Junction,AZ,85120,04,04021,Pinal County,33.405149,-111.554141,38060,"Phoenix-Mesa-Scottsdale, AZ",1,N,N,N,N,0404,04016,04016,2017-2018,21,0,1,21
0400237,Paramount Education Studies Inc,04,11039 West Olive,Peoria,AZ,85345,04,04013,Maricopa County,33.564898,-112.297084,38060,"Phoenix-Mesa-Scottsdale, AZ",1,N,N,N,N,0408,04021,04021,2017-2018,21,0,1,21
0400238,Metropolitan Arts Institute  Inc.,04,1700 N 7th Ave,Phoenix,AZ,85007,04,04013,Maricopa County,33.466641,-112.082989,38060,"Phoenix-Mesa-Scottsdale, AZ",1,N,N,N,N,0407,04024,04024,2017-2018,11,0,1,11
0400239,P.L.C. Charter Schools,04,2504 S. 91st Ave.,Tolleson,AZ,85353,04,04013,Maricopa County,33.423956,-112.257333,38060,"Phoenix-Mesa-Scottsdale, AZ",1,N,N,N,N,0403,04019,04019,2017-2018,11,0,1,11
0400241,Paragon Management  Inc.,04,12775 N. 175th Avenue,Surprise,AZ,85374,04,04013,Maricopa County,33.599899,-112.434686,38060,"Phoenix-Mesa-Scottsdale, AZ",1,N,N,N,N,0408,04022,04022,2017-2018,21,0,1,21
0400243,Skyline Schools  Inc.,04,7500 S 40th St,Phoenix,AZ,85042,04,04013,Maricopa County,33.379667,-111.997216,38060,"Phoenix-Mesa-Scottsdale, AZ",1,N,N,N,N,0407,04027,04027,2017-2018,11,0,1,11
0400244,Edkey  Inc. - Sequoia Charter School,04,1460 S. Horne,Mesa,AZ,85204,04,04013,Maricopa County,33.387587,-111.814937,38060,"Phoenix-Mesa-Scottsdale, AZ",1,N,N,N,N,0409,04026,04026,2017-2018,11,0,1,11
0400246,Edkey  Inc. - Sequoia Village School,04,982 Full House Lane,Show Low,AZ,85901,04,04017,Navajo County,34.284032,-110.121704,43320,"Show Low, AZ",2,N,N,N,N,0401,04007,04007,2017-2018,41,27.27,2,"33, 41"
0400248,Telesis Center for Learning  Inc.,04,2598 Starlite Lane,Lake Havasu City,AZ,86403,04,04015,Mohave County,34.49161,-114.3172,29420,"Lake Havasu City-Kingman, AZ",1,332,"Las Vegas-Henderson, NV-AZ",N,N,0404,04005,04005,2017-2018,13,0,1,13
0400254,Southern Arizona Community Academy  Inc.,04,2470 N. Tucson Blvd.,Tucson,AZ,85716,04,04019,Pima County,32.251762,-110.934988,46060,"Tucson, AZ",1,536,"Tucson-Nogales, AZ",N,N,0402,04009,04009,2017-2018,11,0,1,11
0400255,Tucson Country Day School  Inc.,04,9239 E. Wrightstown Rd.,Tucson,AZ,85715,04,04019,Pima County,32.242406,-110.796619,46060,"Tucson, AZ",1,536,"Tucson-Nogales, AZ",N,N,0402,04010,04010,2017-2018,11,0,1,11
0400258,Carden of Tucson  Inc.,04,5260 N Royal Palm Dr,Tucson,AZ,85705,04,04019,Pima County,32.30397,-111.0242,46060,"Tucson, AZ",1,536,"Tucson-Nogales, AZ",N,N,0402,04009,04009,2017-2018,21,0,1,21
0400259,Southgate Academy  Inc.,04,850 W Valencia Rd.,Tucson,AZ,85706,04,04019,Pima County,32.249234,-110.825768,46060,"Tucson, AZ",1,536,"Tucson-Nogales, AZ",N,N,0402,04010,04010,2017-2018,11,0,1,11
0400261,Eastpointe High School  Inc.,04,8495 East Broadway,Tucson,AZ,85710,04,04019,Pima County,32.22059,-110.811,46060,"Tucson, AZ",1,536,"Tucson-Nogales, AZ",N,N,0402,04010,04010,2017-2018,11,0,1,11
0400263,Patagonia Montessori Elementary School,04,500 North Third Avenue,Patagonia,AZ,85624,04,04023,Santa Cruz County,31.545215,-110.75743,35700,"Nogales, AZ",2,536,"Tucson-Nogales, AZ",N,N,0403,04002,04002,2017-2018,42,0,1,42
0400264,Santa Cruz Valley Opportunities in Education  Inc.,04,18 Calle Baca,Tubac,AZ,85646,04,04023,Santa Cruz County,31.615617,-111.051155,35700,"Nogales, AZ",2,536,"Tucson-Nogales, AZ",N,N,0403,04002,04002,2017-2018,42,0,1,42
0400266,PACE Preparatory Academy  Inc.,04,1865 West SR 89A,Sedona,AZ,86336,04,04025,Yavapai County,34.8638,-111.7926,39140,"Prescott, AZ",1,N,N,N,N,0401,04006,04006,2017-2018,23,0,1,23
0400267,Kestrel Schools  Inc.,04,325 N. Washington Ave.,Prescott,AZ,86301,04,04025,Yavapai County,34.546451,-112.460051,39140,"Prescott, AZ",1,N,N,N,N,0404,04001,04001,2017-2018,12,0,1,12
0400268,Juniper Tree Academy,04,3777 W. 16th Street,Yuma,AZ,85364,04,04027,Yuma County,32.697557,-114.664876,49740,"Yuma, AZ",1,N,N,N,N,0403,04004,04004,2017-2018,13,0,1,13
0400273,GAR  LLC dba Student Choice High School,04,1833 N. Scottsdale Rd.,Tempe,AZ,85281,04,04013,Maricopa County,33.456133,-111.926049,38060,"Phoenix-Mesa-Scottsdale, AZ",1,N,N,N,N,0409,04024,04024,2017-2018,12,12.44,2,"12, 21"
0400274,AIBT Non-Profit Charter High School - Phoenix,04,6049 N. 43rd Ave.,Phoenix,AZ,85019,04,04013,Maricopa County,33.52534,-112.150973,38060,"Phoenix-Mesa-Scottsdale, AZ",1,N,N,N,N,0407,04030,04030,2017-2018,11,0,1,11
0400275,Highland Free School,04,510 South Highland Avenue,Tucson,AZ,85719,04,04019,Pima County,32.21636,-110.9516,46060,"Tucson, AZ",1,536,"Tucson-Nogales, AZ",N,N,0403,04003,04003,2017-2018,11,0,1,11
0400276,Academy with Community Partners  Inc,04,433 North Hall,Mesa,AZ,85203,04,04013,Maricopa County,33.423526,-111.793077,38060,"Phoenix-Mesa-Scottsdale, AZ",1,N,N,N,N,0405,04025,04025,2017-2018,11,0,1,11
0400278,Deer Valley Charter Schools  Inc.,04,3050 W. Agua Fria Freeway,Phoenix,AZ,85027,04,04013,Maricopa County,33.6693,-112.125,38060,"Phoenix-Mesa-Scottsdale, AZ",1,N,N,N,N,0406,04015,04015,2017-2018,21,0,1,21
0400279,West Gilbert Charter Elementary School  Inc.,04,18052 N. Black Canyon Highway,Phoenix,AZ,85053,04,04013,Maricopa County,33.6513,-112.1152,38060,"Phoenix-Mesa-Scottsdale, AZ",1,N,N,N,N,0406,04020,04020,2017-2018,21,0,1,21
0400280,Mohave Accelerated Learning Center,04,625 Marina Blvd,Bullhead City,AZ,86442,04,04015,Mohave County,35.101079,-114.625631,29420,"Lake Havasu City-Kingman, AZ",1,332,"Las Vegas-Henderson, NV-AZ",N,N,0404,04005,04005,2017-2018,33,0,1,33
0400281,Masada Charter School  Inc.,04,365 West Cannon Avenue,Colorado City,AZ,86021,04,04015,Mohave County,36.957392,-112.982073,29420,"Lake Havasu City-Kingman, AZ",1,332,"Las Vegas-Henderson, NV-AZ",N,N,0404,04005,04005,2017-2018,32,0,1,32
0400282,Harvest Power Community Development Group  Inc.,04,1185 South 4th Avenue,Yuma,AZ,85364,04,04027,Yuma County,32.706,-114.6246,49740,"Yuma, AZ",1,N,N,N,N,0403,04004,04004,2017-2018,13,48.97,3,"13, 22, 32"
0400284,Omega Alpha Academy,04,1402 San Antonio Ave.,Douglas,AZ,85607,04,04003,Cochise County,31.34882,-109.532579,43420,"Sierra Vista-Douglas, AZ",1,N,N,N,N,0402,04014,04014,2017-2018,33,0,1,33
0400285,Montessori House  Inc.,04,2415 North Terrace Circle,Mesa,AZ,85203,04,04013,Maricopa County,33.459395,-111.801468,38060,"Phoenix-Mesa-Scottsdale, AZ",1,N,N,N,N,0405,04025,04025,2017-2018,11,0,1,11
0400288,Premier Charter High School,04,7544 West Indian School Road,Phoenix,AZ,85033,04,04013,Maricopa County,33.495643,-112.222196,38060,"Phoenix-Mesa-Scottsdale, AZ",1,N,N,N,N,0407,04029,04029,2017-2018,11,0,1,11
0400290,Pan-American Elementary Charter,04,3001 W. Indian School Rd.,Phoenix,AZ,85017,04,04013,Maricopa County,33.493996,-112.12408,38060,"Phoenix-Mesa-Scottsdale, AZ",1,N,N,N,N,0407,04030,04030,2017-2018,11,0,1,11
0400295,Kingman Unified School District,04,3033 MacDonald Ave.,Kingman,AZ,86401,04,04015,Mohave County,35.214519,-114.01571,29420,"Lake Havasu City-Kingman, AZ",1,332,"Las Vegas-Henderson, NV-AZ",N,N,0404,04005,04005,2017-2018,33,35.86,4,"33, 41, 42, 43"
0400296,El Centro for the Study of Primary and Secondary Education,04,25 East Drachman Street,Tucson,AZ,85705,04,04019,Pima County,32.23973,-110.970982,46060,"Tucson, AZ",1,536,"Tucson-Nogales, AZ",N,N,0403,04003,04003,2017-2018,11,0,1,11
0400298,Legacy Schools,04,7420 E. Main St.,Mesa,AZ,85207,04,04013,Maricopa County,33.4155,-111.6708,38060,"Phoenix-Mesa-Scottsdale, AZ",1,N,N,N,N,0405,04016,04016,2017-2018,11,0,1,11
0400299,Visions Unlimited Academy  Inc.,04,1275 E. Barney Lane,Benson,AZ,85602,04,04003,Cochise County,31.970269,-110.269205,43420,"Sierra Vista-Douglas, AZ",1,N,N,N,N,0402,04014,04014,2017-2018,41,0,1,41
0400303,North Star Charter School  Inc.,04,10720 W. Indian School Road,Phoenix,AZ,85037,04,04013,Maricopa County,33.495297,-112.273302,38060,"Phoenix-Mesa-Scottsdale, AZ",1,N,N,N,N,0403,04029,04029,2017-2018,11,0,1,11
0400310,Calibre Academy,04,4744 W. Grovers Ave.,Glendale,AZ,85308,04,04013,Maricopa County,33.6485,-112.162111,38060,"Phoenix-Mesa-Scottsdale, AZ",1,N,N,N,N,0408,04015,04015,2017-2018,21,0,1,21
0400311,E-Institute Charter Schools  Inc.,04,4744 W. Grovers Ave.,Glendale,AZ,85308,04,04013,Maricopa County,33.6485,-112.162111,38060,"Phoenix-Mesa-Scottsdale, AZ",1,N,N,N,N,0408,04015,04015,2017-2018,11,35,4,"11, 21, 22, 31"
0400315,Yavapai Accommodation School District,04,2972 Centerpointe East Dr,Prescott Valley,AZ,86301,04,04025,Yavapai County,34.62823,-112.410912,39140,"Prescott, AZ",1,N,N,N,N,0404,04001,04001,2017-2018,41,32.26,2,"23, 41"
0400316,Cobre Valley Institute of Technology District,04,1500 Sunset Drive,Superior,AZ,85173,04,04021,Pinal County,33.278045,-111.110139,38060,"Phoenix-Mesa-Scottsdale, AZ",1,N,N,N,N,0401,04008,04008,2017-2018,32,31.25,4,"32, 33, 41, 43"
0400317,Khalsa Family Services,04,3701 East River Road,Tucson,AZ,85718,04,04019,Pima County,32.276715,-110.914243,46060,"Tucson, AZ",1,536,"Tucson-Nogales, AZ",N,N,0402,04009,04009,2017-2018,21,0,1,21
0400318,Aprender Tucson,04,2701 South Campbell Avenue,Tucson,AZ,85713,04,04019,Pima County,32.191315,-110.942396,46060,"Tucson, AZ",1,536,"Tucson-Nogales, AZ",N,N,0403,04002,04002,2017-2018,11,0,1,11
0400320,Acorn Montessori Charter School,04,8556 East Loos Drive,Prescott Valley,AZ,86314,04,04025,Yavapai County,34.60451,-112.315941,39140,"Prescott, AZ",1,N,N,N,N,0404,04001,04001,2017-2018,23,0,1,23
0400321,Pinnacle Education-WMCB  Inc.,04,6437 West Chandler Blvd.,Chandler,AZ,85226,04,04013,Maricopa County,33.3052,-111.9528,38060,"Phoenix-Mesa-Scottsdale, AZ",1,N,N,N,N,0409,04018,04018,2017-2018,11,35.48,2,"11, 12"
0400322,Desert Rose Academy Inc.,04,3686 W. Orange Grove Rd.,Tucson,AZ,85741,04,04019,Pima County,32.3234,-111.0429,46060,"Tucson, AZ",1,536,"Tucson-Nogales, AZ",N,N,0401,04009,04009,2017-2018,11,0,1,11
0400323,Crown Charter School  Inc,04,12450 W. Maryland,Litchfield Park,AZ,85340,04,04013,Maricopa County,33.530179,-112.32748,38060,"Phoenix-Mesa-Scottsdale, AZ",1,N,N,N,N,0408,04029,04029,2017-2018,41,0,1,41
0400326,Success School,04,16011 N. Dysart Rd.,Surprise,AZ,85374,04,04013,Maricopa County,33.629859,-112.341577,38060,"Phoenix-Mesa-Scottsdale, AZ",1,N,N,N,N,0408,04021,04021,2017-2018,21,0,1,21
0400327,Pointe Educational Services,04,10215 N 43rd Ave,Phoenix,AZ,85051,04,04013,Maricopa County,33.57886,-112.150481,38060,"Phoenix-Mesa-Scottsdale, AZ",1,N,N,N,N,0406,04020,04020,2017-2018,11,11.26,2,"11, 21"
0400328,A Center for Creative Education,04,215 South Main Street,Cottonwood,AZ,86326,04,04025,Yavapai County,34.735219,-112.009436,39140,"Prescott, AZ",1,N,N,N,N,0404,04006,04006,2017-2018,32,0,1,32
0400329,American Virtual Academy,04,2471 N. Arizona Ave.,Chandler,AZ,85225,04,04013,Maricopa County,33.34159,-111.840971,38060,"Phoenix-Mesa-Scottsdale, AZ",1,N,N,N,N,0409,04017,04017,2017-2018,21,0,1,21
0400330,Compass High School  Inc.,04,8250 East 22nd Street,Tucson,AZ,85710,04,04019,Pima County,32.2063,-110.8158,46060,"Tucson, AZ",1,536,"Tucson-Nogales, AZ",N,N,0402,04010,04010,2017-2018,11,0,1,11
0400332,James Sandoval Preparatory High School,04,3830 North 67th Avenue,Phoenix,AZ,85033,04,04013,Maricopa County,33.492006,-112.199993,38060,"Phoenix-Mesa-Scottsdale, AZ",1,N,N,N,N,0407,04029,04029,2017-2018,11,0,1,11
0400339,Destiny School  Inc.,04,22 Prickly Pear Drive,Globe,AZ,85501,04,04007,Gila County,33.3892,-110.7702,37740,"Payson, AZ",2,N,N,N,N,0401,04008,04008,2017-2018,33,0,1,33
0400340,Noah Webster Schools - Mesa,04,7301 East Baseline Road,Mesa,AZ,85209,04,04013,Maricopa County,33.378502,-111.675339,38060,"Phoenix-Mesa-Scottsdale, AZ",1,N,N,N,N,0405,04016,04016,2017-2018,11,0,1,11
0400341,Valley Academy for Career and Technology Education,04,830 S Main Street,Cottonwood,AZ,86326,04,04025,Yavapai County,34.725157,-112.006603,39140,"Prescott, AZ",1,N,N,N,N,0404,04006,04006,2017-2018,32,22.22,2,"32, 41"
0400343,Griffin Foundation  Inc. The,04,1844 S. Alvernon Way,Tucson,AZ,85711,04,04019,Pima County,32.2006,-110.910347,46060,"Tucson, AZ",1,536,"Tucson-Nogales, AZ",N,N,0402,04002,04002,2017-2018,11,0,1,11
0400344,Pathways KM Charter Schools  Inc,04,3404 N 56th Street,Scottsdale,AZ,85255,04,04013,Maricopa County,33.788531,-111.958564,38060,"Phoenix-Mesa-Scottsdale, AZ",1,N,N,N,N,0406,04023,04023,2017-2018,12,0,1,12
0400345,Cochise Technology District,04,1405 N. Grand Rd.,Willcox,AZ,85643,04,04003,Cochise County,32.146539,-109.637014,43420,"Sierra Vista-Douglas, AZ",1,N,N,N,N,0402,04014,04014,2017-2018,43,72.73,6,"13, 32, 33, 41, 42, 43"
0400347,Coconino Association for Vocation Industry and Technology,04,19 Poplar Street,Page,AZ,86040,04,04005,Coconino County,36.921944,-111.459474,22380,"Flagstaff, AZ",1,N,N,N,N,0401,04007,04007,2017-2018,13,66.67,6,"13, 32, 33, 41, 42, 43"
0400348,Central Arizona Valley Institute of Technology,04,1789 West Coolidge Avenue,Coolidge,AZ,85128,04,04021,Pinal County,32.972565,-111.548721,38060,"Phoenix-Mesa-Scottsdale, AZ",1,N,N,N,N,0401,04008,04008,2017-2018,41,24,4,"23, 31, 32, 41"
0400349,Gila Institute for Technology,04,3998 W. Ball Park Street,Thatcher,AZ,85552,04,04009,Graham County,32.835667,-109.765539,40940,"Safford, AZ",2,N,N,N,N,0401,04014,04014,2017-2018,33,10,2,"33, 43"
0400350,PEAK School Inc.  The,04,2016 North First Street,Flagstaff,AZ,86004,04,04005,Coconino County,35.20844,-111.616721,22380,"Flagstaff, AZ",1,N,N,N,N,0401,04006,04006,2017-2018,13,0,1,13
0400351,Kaizen Education Foundation dba Vista Grove Preparatory  1,04,7878 N. 16th St.,Phoenix,AZ,85020,04,04013,Maricopa County,33.5528,-112.048,38060,"Phoenix-Mesa-Scottsdale, AZ",1,N,N,N,N,0409,04028,04028,2017-2018,11,0,1,11
0400352,American Charter Schools Foundation d.b.a. Estrella High Sch,04,7878 N. 16th St.,Phoenix,AZ,85020,04,04013,Maricopa County,33.55264,-112.049571,38060,"Phoenix-Mesa-Scottsdale, AZ",1,N,N,N,N,0409,04028,04028,2017-2018,22,0,1,22
0400353,American Charter Schools Foundation d.b.a. Peoria Accelerate,04,7878 N. 16th St.,Phoenix,AZ,85020,04,04013,Maricopa County,33.55264,-112.049571,38060,"Phoenix-Mesa-Scottsdale, AZ",1,N,N,N,N,0409,04028,04028,2017-2018,21,0,1,21
0400354,American Charter Schools Foundation d.b.a. Sun Valley High S,04,7878 N. 16th St.,Phoenix,AZ,85020,04,04013,Maricopa County,33.55264,-112.049571,38060,"Phoenix-Mesa-Scottsdale, AZ",1,N,N,N,N,0409,04028,04028,2017-2018,11,0,1,11
0400355,American Charter Schools Foundation d.b.a. West Phoenix High,04,7878 N. 16th St.,Phoenix,AZ,85020,04,04013,Maricopa County,33.55264,-112.049571,38060,"Phoenix-Mesa-Scottsdale, AZ",1,N,N,N,N,0409,04028,04028,2017-2018,11,0,1,11
0400356,Nosotros  Inc,04,440 North Grande,Tucson,AZ,85745,04,04019,Pima County,32.2276,-110.9893,46060,"Tucson, AZ",1,536,"Tucson-Nogales, AZ",N,N,0403,04003,04003,2017-2018,11,0,1,11
0400357,American Charter Schools Foundation d.b.a. Apache Trail High,04,7878 N. 16th St.,Phoenix,AZ,85020,04,04013,Maricopa County,33.55264,-112.049571,38060,"Phoenix-Mesa-Scottsdale, AZ",1,N,N,N,N,0409,04028,04028,2017-2018,21,0,1,21
0400359,Challenger Basic School  Inc.,04,1315 North Greenfield Road,Gilbert,AZ,85234,04,04013,Maricopa County,33.374327,-111.7388,38060,"Phoenix-Mesa-Scottsdale, AZ",1,N,N,N,N,0405,04012,04012,2017-2018,21,0,1,21
0400361,Arizona Community Development Corporation,04,5704 East Grant Road,Tucson,AZ,85712,04,04019,Pima County,32.25028,-110.870801,46060,"Tucson, AZ",1,536,"Tucson-Nogales, AZ",N,N,0402,04010,04010,2017-2018,11,0,1,11
0400363,SC Jensen Corporation  Inc. dba Intelli-School,04,2222 W. Northern Ave.,Phoenix,AZ,85021,04,04013,Maricopa County,33.55396,-112.107511,38060,"Phoenix-Mesa-Scottsdale, AZ",1,N,N,N,N,0409,04030,04030,2017-2018,21,0,1,21
0400364,PAS Charter  Inc.  dba Intelli-School,04,2222 W Northern Ave,Phoenix,AZ,85021,04,04013,Maricopa County,33.5531,-112.1068,38060,"Phoenix-Mesa-Scottsdale, AZ",1,N,N,N,N,0409,04030,04030,2017-2018,11,41.29,2,"11, 21"
0400366,Valley of the Sun Waldorf Education Association  dba Desert,04,6210 South 28th Street,Phoenix,AZ,85042,04,04013,Maricopa County,33.391461,-112.022281,38060,"Phoenix-Mesa-Scottsdale, AZ",1,N,N,N,N,0407,04027,04027,2017-2018,11,0,1,11
0400367,Pima Prevention Partnership dba Pima Partnership School  The,04,924 N Alvernon Way,Tucson,AZ,85711,04,04019,Pima County,32.2332,-110.909211,46060,"Tucson, AZ",1,536,"Tucson-Nogales, AZ",N,N,0402,04010,04010,2017-2018,11,0,1,11
0400368,Academy of Mathematics and Science Inc. 1,04,1557 West Prince Road,Tucson,AZ,85705,04,04019,Pima County,32.271776,-110.999214,46060,"Tucson, AZ",1,536,"Tucson-Nogales, AZ",N,N,0402,04003,04003,2017-2018,11,0,1,11
0400370,Midtown Primary School,04,3823 North 11th Street,Phoenix,AZ,85014,04,04013,Maricopa County,33.492,-112.058,38060,"Phoenix-Mesa-Scottsdale, AZ",1,N,N,N,N,0409,04024,04024,2017-2018,11,0,1,11
0400373,Tucson International Academy  Inc.,04,2700 W. Broadway Blvd.,Tucson,AZ,85745,04,04019,Pima County,32.221784,-111.024733,46060,"Tucson, AZ",1,536,"Tucson-Nogales, AZ",N,N,0403,04003,04003,2017-2018,11,0,1,11
0400374,Bell Canyon Charter School  Inc,04,18052 North Black Canyon Highw,Phoenix,AZ,85053,04,04013,Maricopa County,33.651525,-112.115995,38060,"Phoenix-Mesa-Scottsdale, AZ",1,N,N,N,N,0406,04020,04020,2017-2018,11,0,1,11
0400376,Cortez Park Charter Middle School  Inc.,04,18052 North Black Canyon Highw,Phoenix,AZ,85053,04,04013,Maricopa County,33.65142,-112.116111,38060,"Phoenix-Mesa-Scottsdale, AZ",1,N,N,N,N,0406,04020,04020,2017-2018,11,0,1,11
0400377,West Gilbert Charter Middle School  Inc.,04,18052 North Black Canyon Highw,Phoenix,AZ,85053,04,04013,Maricopa County,33.65142,-112.116111,38060,"Phoenix-Mesa-Scottsdale, AZ",1,N,N,N,N,0406,04020,04020,2017-2018,21,0,1,21
0400381,Carpe Diem Collegiate High School,04,899 Plaza Circle,Yuma,AZ,85364,04,04027,Yuma County,32.704379,-114.611223,49740,"Yuma, AZ",1,N,N,N,N,0403,04004,04004,2017-2018,13,0,1,13
0400382,CPLC Community Schools dba Toltecalli High School,04,200 North Stone Avenue,Tucson,AZ,85701,04,04019,Pima County,32.22452,-110.971301,46060,"Tucson, AZ",1,536,"Tucson-Nogales, AZ",N,N,0403,04003,04003,2017-2018,11,0,1,11
0400383,Life Skills Center of Arizona  Inc.,04,8123 N. 35th Ave.,Phoenix,AZ,85051,04,04013,Maricopa County,33.555493,-112.133732,38060,"Phoenix-Mesa-Scottsdale, AZ",1,N,N,N,N,0406,04030,04030,2017-2018,11,0,1,11
0400384,American Charter Schools Foundation d.b.a. Desert Hills High,04,7878 N. 16th St.,Phoenix,AZ,85020,04,04013,Maricopa County,33.55264,-112.049571,38060,"Phoenix-Mesa-Scottsdale, AZ",1,N,N,N,N,0409,04028,04028,2017-2018,21,0,1,21
0400385,American Charter Schools Foundation d.b.a. Crestview College,04,7878 N. 16th St.,Phoenix,AZ,85020,04,04013,Maricopa County,33.55264,-112.049571,38060,"Phoenix-Mesa-Scottsdale, AZ",1,N,N,N,N,0409,04028,04028,2017-2018,11,0,1,11
0400386,Kaizen Education Foundation dba Summit High School,04,7878 N. 16th Street,Phoenix,AZ,85020,04,04013,Maricopa County,33.55264,-112.049571,38060,"Phoenix-Mesa-Scottsdale, AZ",1,N,N,N,N,0409,04028,04028,2017-2018,11,0,1,11
0400387,Kaizen Education Foundation dba Tempe Accelerated High Schoo,04,7878 N. 16th Street,Phoenix,AZ,85020,04,04013,Maricopa County,33.55264,-112.049571,38060,"Phoenix-Mesa-Scottsdale, AZ",1,N,N,N,N,0409,04028,04028,2017-2018,11,0,1,11
0400388,Kaizen Education Foundation dba Skyview High School,04,7820 E Wrightstown Rd.,Tucson,AZ,85715,04,04019,Pima County,32.2507,-110.8257,46060,"Tucson, AZ",1,536,"Tucson-Nogales, AZ",N,N,0402,04010,04010,2017-2018,31,0,1,31
0400389,Kaizen Education Foundation dba Maya High School,04,7878 N. 16th St.,Phoenix,AZ,85020,04,04013,Maricopa County,33.55264,-112.049571,38060,"Phoenix-Mesa-Scottsdale, AZ",1,N,N,N,N,0409,04028,04028,2017-2018,11,0,1,11
0400390,Camelback Education  Inc,04,7634 W Camelback Rd,Glendale,AZ,85303,04,04013,Maricopa County,33.50931,-112.223704,38060,"Phoenix-Mesa-Scottsdale, AZ",1,N,N,N,N,0407,04029,04029,2017-2018,21,0,1,21
0400391,Vista Charter School,04,7318 West Lynwood,Phoenix,AZ,85035,04,04013,Maricopa County,33.464768,-112.2167,38060,"Phoenix-Mesa-Scottsdale, AZ",1,N,N,N,N,0407,04019,04019,2017-2018,11,0,1,11
0400393,Lifelong Learning Research Institute Inc. 1,04,3295 West Orange Grove Road,Tucson,AZ,85741,04,04019,Pima County,32.3232,-111.0364,46060,"Tucson, AZ",1,536,"Tucson-Nogales, AZ",N,N,0402,04009,04009,2017-2018,21,0,1,21
0400394,Avondale Learning dba Precision Academy,04,7318 W. Lynwood,Phoenix,AZ,85035,04,04013,Maricopa County,33.4645,-112.2172,38060,"Phoenix-Mesa-Scottsdale, AZ",1,N,N,N,N,0407,04019,04019,2017-2018,11,0,1,11
0400395,LEAD Charter Schools,04,633 E Ray Road,Gilbert,AZ,85296,04,04013,Maricopa County,33.320628,-111.775635,38060,"Phoenix-Mesa-Scottsdale, AZ",1,N,N,N,N,0405,04012,04012,2017-2018,21,0,1,21
0400396,All Aboard Charter School,04,5827 North 35th Avenue,Phoenix,AZ,85017,04,04013,Maricopa County,33.523369,-112.133553,38060,"Phoenix-Mesa-Scottsdale, AZ",1,N,N,N,N,0407,04030,04030,2017-2018,11,0,1,11
0400397,CAFA  Inc. dba Learning Foundation Performing Arts School,04,1120 S. Gilbert Rd,Gilbert,AZ,85296,04,04013,Maricopa County,33.329614,-111.795933,38060,"Phoenix-Mesa-Scottsdale, AZ",1,N,N,N,N,0405,04017,04017,2017-2018,11,0,1,11
0400399,Montessori Academy  Inc.,04,6050 N Invergordon Rd,Paradise Valley,AZ,85253,04,04013,Maricopa County,33.525414,-111.943851,38060,"Phoenix-Mesa-Scottsdale, AZ",1,N,N,N,N,0406,04028,04028,2017-2018,21,0,1,21
0400401,New World Educational Center,04,5818 N. 7th St.,Phoenix,AZ,85014,04,04013,Maricopa County,33.522634,-112.065791,38060,"Phoenix-Mesa-Scottsdale, AZ",1,N,N,N,N,0409,04028,04028,2017-2018,11,0,1,11
0400402,Cholla Academy,04,4141 N 67th Avenue,Phoenix,AZ,85033,04,04013,Maricopa County,33.495851,-112.202849,38060,"Phoenix-Mesa-Scottsdale, AZ",1,N,N,N,N,0407,04029,04029,2017-2018,21,49.41,2,"11, 21"
0400403,Akimel O'Otham Pee Posh Charter School Inc. 1,04,3652 E. Blackwater School Road,Coolidge,AZ,85128,04,04021,Pinal County,33.031406,-111.579468,38060,"Phoenix-Mesa-Scottsdale, AZ",1,N,N,N,N,0401,04008,04008,2017-2018,42,0,1,42
0400404,Akimel O'Otham Pee Posh Charter School Inc. 2,04,3652 E. Blackwater School Road,Coolidge,AZ,85128,04,04021,Pinal County,33.031406,-111.579468,38060,"Phoenix-Mesa-Scottsdale, AZ",1,N,N,N,N,0401,04008,04008,2017-2018,42,0,1,42
0400405,Cornerstone Charter School Inc,04,7107 N Black Canyon Hwy,Phoenix,AZ,85021,04,04013,Maricopa County,33.541142,-112.111786,38060,"Phoenix-Mesa-Scottsdale, AZ",1,N,N,N,N,0409,04030,04030,2017-2018,11,0,1,11
0400406,Happy Valley School  Inc.,04,827 E. 6th Ave.,Mesa,AZ,85204,04,04013,Maricopa County,33.4042,-111.8133,38060,"Phoenix-Mesa-Scottsdale, AZ",1,N,N,N,N,0409,04026,04026,2017-2018,21,0,1,21
0400407,CITY Center for Collaborative Learning,04,47 E. Pennington St,Tucson,AZ,85701,04,04019,Pima County,32.222874,-110.970204,46060,"Tucson, AZ",1,536,"Tucson-Nogales, AZ",N,N,0403,04003,04003,2017-2018,11,0,1,11
0400409,Satori  Inc.,04,3727 North First Ave,Tucson,AZ,85719,04,04019,Pima County,32.274528,-110.961486,46060,"Tucson, AZ",1,536,"Tucson-Nogales, AZ",N,N,0402,04009,04009,2017-2018,11,0,1,11
0400413,Mohave Accelerated Elementary School  Inc.,04,625 Marina Blvd.,Bullhead City,AZ,86442,04,04015,Mohave County,35.101107,-114.625594,29420,"Lake Havasu City-Kingman, AZ",1,332,"Las Vegas-Henderson, NV-AZ",N,N,0404,04005,04005,2017-2018,33,23.43,2,"33, 41"
0400414,Academy of Building Industries  Inc.,04,1547 E. Lipan Boulevard,Fort Mohave,AZ,86426,04,04015,Mohave County,34.983194,-114.595492,29420,"Lake Havasu City-Kingman, AZ",1,332,"Las Vegas-Henderson, NV-AZ",N,N,0404,04005,04005,2017-2018,33,0,1,33
0400415,Arizona Montessori Charter School at Anthem,04,2045 West Northern Ave.,Phoenix,AZ,85021,04,04013,Maricopa County,33.5531,-112.1027,38060,"Phoenix-Mesa-Scottsdale, AZ",1,N,N,N,N,0409,04030,04030,2017-2018,41,0,1,41
0400416,StarShine Academy,04,3535 McDowell Road,Phoenix,AZ,85008,04,04013,Maricopa County,33.465354,-112.005594,38060,"Phoenix-Mesa-Scottsdale, AZ",1,N,N,N,N,0407,04024,04024,2017-2018,11,0,1,11
0400417,Arizona Agribusiness & Equine Center Inc. 2,04,3636 N. Central,Phoenix,AZ,85012,04,04013,Maricopa County,33.4905,-112.0739,38060,"Phoenix-Mesa-Scottsdale, AZ",1,N,N,N,N,0407,04024,04024,2017-2018,11,0,1,11
0400419,Gila County Regional School District,04,439 S. 4th Street,Globe,AZ,85501,04,04007,Gila County,33.395173,-110.777156,37740,"Payson, AZ",2,N,N,N,N,0401,04008,04008,2017-2018,33,0,1,33
0400420,Pillar Charter School,04,8433 North Black Canyon Hwy,Phoenix,AZ,85021,04,04013,Maricopa County,33.55947,-112.113081,38060,"Phoenix-Mesa-Scottsdale, AZ",1,N,N,N,N,0409,04030,04030,2017-2018,11,27.5,2,"11, 32"
0400423,Legacy Education Group,04,7420 E. Main Street,Mesa,AZ,85207,04,04013,Maricopa County,33.416646,-111.668818,38060,"Phoenix-Mesa-Scottsdale, AZ",1,N,N,N,N,0405,04016,04016,2017-2018,11,0,1,11
0400424,Rosefield Charter Elementary School  Inc.,04,18052 N. Black Canyon Highway,Phoenix,AZ,85053,04,04013,Maricopa County,33.65142,-112.116111,38060,"Phoenix-Mesa-Scottsdale, AZ",1,N,N,N,N,0406,04020,04020,2017-2018,21,0,1,21
0400425,East Mesa Charter Elementary School  Inc.,04,18052 N. Black Canyon Highway,Phoenix,AZ,85053,04,04013,Maricopa County,33.65142,-112.116111,38060,"Phoenix-Mesa-Scottsdale, AZ",1,N,N,N,N,0406,04020,04020,2017-2018,11,0,1,11
0400426,Arizona Agribusiness & Equine Center Inc. 3,04,3636 N. Central,Phoenix,AZ,85012,04,04013,Maricopa County,33.4905,-112.0739,38060,"Phoenix-Mesa-Scottsdale, AZ",1,N,N,N,N,0407,04024,04024,2017-2018,11,0,1,11
